[
  {
    "name": "Goroka Aéroport",
    "city": "Goroka",
    "country": "Papua New Guinea",
    "IATA": "GKA",
    "lat": -6.081689834590001,
    "lon": 145.391998291,
    "passengers": 0
  },
  {
    "name": "Madang Aéroport",
    "city": "Madang",
    "country": "Papua New Guinea",
    "IATA": "MAG",
    "lat": -5.20707988739,
    "lon": 145.789001465,
    "passengers": 0
  },
  {
    "name": "Mount Hagen Kagamuga Aéroport",
    "city": "Mount Hagen",
    "country": "Papua New Guinea",
    "IATA": "HGU",
    "lat": -5.826789855957031,
    "lon": 144.29600524902344,
    "passengers": 0
  },
  {
    "name": "Nadzab Aéroport",
    "city": "Nadzab",
    "country": "Papua New Guinea",
    "IATA": "LAE",
    "lat": -6.569803,
    "lon": 146.725977,
    "passengers": 0
  },
  {
    "name": "Port Moresby Jacksons International Aéroport",
    "city": "Port Moresby",
    "country": "Papua New Guinea",
    "IATA": "POM",
    "lat": -9.443380355834961,
    "lon": 147.22000122070312,
    "passengers": 0
  },
  {
    "name": "Wewak International Aéroport",
    "city": "Wewak",
    "country": "Papua New Guinea",
    "IATA": "WWK",
    "lat": -3.58383011818,
    "lon": 143.669006348,
    "passengers": 0
  },
  {
    "name": "Narsarsuaq Aéroport",
    "city": "Narssarssuaq",
    "country": "Greenland",
    "IATA": "UAK",
    "lat": 61.1604995728,
    "lon": -45.4259986877,
    "passengers": 0
  },
  {
    "name": "Godthaab / Nuuk Aéroport",
    "city": "Godthaab",
    "country": "Greenland",
    "IATA": "GOH",
    "lat": 64.19090271,
    "lon": -51.6781005859,
    "passengers": 0
  },
  {
    "name": "Kangerlussuaq Aéroport",
    "city": "Sondrestrom",
    "country": "Greenland",
    "IATA": "SFJ",
    "lat": 67.0122218992,
    "lon": -50.7116031647,
    "passengers": 0
  },
  {
    "name": "Thule Air Base",
    "city": "Thule",
    "country": "Greenland",
    "IATA": "THU",
    "lat": 76.5311965942,
    "lon": -68.7032012939,
    "passengers": 0
  },
  {
    "name": "Akureyri Aéroport",
    "city": "Akureyri",
    "country": "Iceland",
    "IATA": "AEY",
    "lat": 65.66000366210938,
    "lon": -18.07270050048828,
    "passengers": 0
  },
  {
    "name": "Egilsstaðir Aéroport",
    "city": "Egilsstadir",
    "country": "Iceland",
    "IATA": "EGS",
    "lat": 65.2833023071289,
    "lon": -14.401399612426758,
    "passengers": 0
  },
  {
    "name": "Hornafjörður Aéroport",
    "city": "Hofn",
    "country": "Iceland",
    "IATA": "HFN",
    "lat": 64.295601,
    "lon": -15.2272,
    "passengers": 0
  },
  {
    "name": "Húsavík Aéroport",
    "city": "Husavik",
    "country": "Iceland",
    "IATA": "HZK",
    "lat": 65.952301,
    "lon": -17.426001,
    "passengers": 0
  },
  {
    "name": "Ísafjörður Aéroport",
    "city": "Isafjordur",
    "country": "Iceland",
    "IATA": "IFJ",
    "lat": 66.05809783935547,
    "lon": -23.135299682617188,
    "passengers": 0
  },
  {
    "name": "Keflavik International Aéroport",
    "city": "Keflavik",
    "country": "Iceland",
    "IATA": "KEF",
    "lat": 63.985000610352,
    "lon": -22.605600357056,
    "passengers": 0
  },
  {
    "name": "Patreksfjörður Aéroport",
    "city": "Patreksfjordur",
    "country": "Iceland",
    "IATA": "PFJ",
    "lat": 65.555801,
    "lon": -23.965,
    "passengers": 0
  },
  {
    "name": "Reykjavik Aéroport",
    "city": "Reykjavik",
    "country": "Iceland",
    "IATA": "RKV",
    "lat": 64.1299972534,
    "lon": -21.9405994415,
    "passengers": 0
  },
  {
    "name": "Siglufjörður Aéroport",
    "city": "Siglufjordur",
    "country": "Iceland",
    "IATA": "SIJ",
    "lat": 66.133301,
    "lon": -18.9167,
    "passengers": 0
  },
  {
    "name": "Vestmannaeyjar Aéroport",
    "city": "Vestmannaeyjar",
    "country": "Iceland",
    "IATA": "VEY",
    "lat": 63.42430114746094,
    "lon": -20.278900146484375,
    "passengers": 0
  },
  {
    "name": "Sault Ste Marie Aéroport",
    "city": "Sault Sainte Marie",
    "country": "Canada",
    "IATA": "YAM",
    "lat": 46.48500061035156,
    "lon": -84.5093994140625,
    "passengers": 0
  },
  {
    "name": "St. Anthony Aéroport",
    "city": "St. Anthony",
    "country": "Canada",
    "IATA": "YAY",
    "lat": 51.3918991089,
    "lon": -56.083099365200006,
    "passengers": 0
  },
  {
    "name": "Tofino / Long Beach Aéroport",
    "city": "Tofino",
    "country": "Canada",
    "IATA": "YAZ",
    "lat": 49.079833,
    "lon": -125.775583,
    "passengers": 0
  },
  {
    "name": "Kugaaruk Aéroport",
    "city": "Pelly Bay",
    "country": "Canada",
    "IATA": "YBB",
    "lat": 68.534401,
    "lon": -89.808098,
    "passengers": 0
  },
  {
    "name": "Baie Comeau Aéroport",
    "city": "Baie Comeau",
    "country": "Canada",
    "IATA": "YBC",
    "lat": 49.13249969482422,
    "lon": -68.20439910888672,
    "passengers": 0
  },
  {
    "name": "CFB Bagotville",
    "city": "Bagotville",
    "country": "Canada",
    "IATA": "YBG",
    "lat": 48.33060073852539,
    "lon": -70.99639892578125,
    "passengers": 0
  },
  {
    "name": "Baker Lake Aéroport",
    "city": "Baker Lake",
    "country": "Canada",
    "IATA": "YBK",
    "lat": 64.29889678960001,
    "lon": -96.077796936,
    "passengers": 0
  },
  {
    "name": "Campbell River Aéroport",
    "city": "Campbell River",
    "country": "Canada",
    "IATA": "YBL",
    "lat": 49.950801849365234,
    "lon": -125.27100372314453,
    "passengers": 0
  },
  {
    "name": "Brandon Municipal Aéroport",
    "city": "Brandon",
    "country": "Canada",
    "IATA": "YBR",
    "lat": 49.91,
    "lon": -99.951897,
    "passengers": 0
  },
  {
    "name": "Cambridge Bay Aéroport",
    "city": "Cambridge Bay",
    "country": "Canada",
    "IATA": "YCB",
    "lat": 69.1081008911,
    "lon": -105.138000488,
    "passengers": 0
  },
  {
    "name": "Nanaimo Aéroport",
    "city": "Nanaimo",
    "country": "Canada",
    "IATA": "YCD",
    "lat": 49.054970224899996,
    "lon": -123.869862556,
    "passengers": 0
  },
  {
    "name": "Castlegar/West Kootenay Regional Aéroport",
    "city": "Castlegar",
    "country": "Canada",
    "IATA": "YCG",
    "lat": 49.2963981628,
    "lon": -117.632003784,
    "passengers": 0
  },
  {
    "name": "Miramichi Aéroport",
    "city": "Chatham",
    "country": "Canada",
    "IATA": "YCH",
    "lat": 47.007801,
    "lon": -65.449203,
    "passengers": 0
  },
  {
    "name": "Charlo Aéroport",
    "city": "Charlo",
    "country": "Canada",
    "IATA": "YCL",
    "lat": 47.990799,
    "lon": -66.330299,
    "passengers": 0
  },
  {
    "name": "Kugluktuk Aéroport",
    "city": "Coppermine",
    "country": "Canada",
    "IATA": "YCO",
    "lat": 67.816704,
    "lon": -115.143997,
    "passengers": 0
  },
  {
    "name": "Coronation Aéroport",
    "city": "Coronation",
    "country": "Canada",
    "IATA": "YCT",
    "lat": 52.0750007629,
    "lon": -111.444999695,
    "passengers": 0
  },
  {
    "name": "Chilliwack Aéroport",
    "city": "Chilliwack",
    "country": "Canada",
    "IATA": "YCW",
    "lat": 49.1528015137,
    "lon": -121.939002991,
    "passengers": 0
  },
  {
    "name": "Clyde River Aéroport",
    "city": "Clyde River",
    "country": "Canada",
    "IATA": "YCY",
    "lat": 70.4860992432,
    "lon": -68.5167007446,
    "passengers": 0
  },
  {
    "name": "Coral Harbour Aéroport",
    "city": "Coral Harbour",
    "country": "Canada",
    "IATA": "YZS",
    "lat": 64.1932983398,
    "lon": -83.3593978882,
    "passengers": 0
  },
  {
    "name": "Dawson City Aéroport",
    "city": "Dawson",
    "country": "Canada",
    "IATA": "YDA",
    "lat": 64.04309844970703,
    "lon": -139.1280059814453,
    "passengers": 0
  },
  {
    "name": "Burwash Aéroport",
    "city": "Burwash",
    "country": "Canada",
    "IATA": "YDB",
    "lat": 61.37110137939453,
    "lon": -139.04100036621094,
    "passengers": 0
  },
  {
    "name": "Deer Lake Aéroport",
    "city": "Deer Lake",
    "country": "Canada",
    "IATA": "YDF",
    "lat": 49.21080017089844,
    "lon": -57.39139938354492,
    "passengers": 0
  },
  {
    "name": "Dease Lake Aéroport",
    "city": "Dease Lake",
    "country": "Canada",
    "IATA": "YDL",
    "lat": 58.4221992493,
    "lon": -130.031997681,
    "passengers": 0
  },
  {
    "name": "Dauphin Barker Aéroport",
    "city": "Dauphin",
    "country": "Canada",
    "IATA": "YDN",
    "lat": 51.100799560546875,
    "lon": -100.052001953125,
    "passengers": 0
  },
  {
    "name": "Dawson Creek Aéroport",
    "city": "Dawson Creek",
    "country": "Canada",
    "IATA": "YDQ",
    "lat": 55.7422981262207,
    "lon": -120.18299865722656,
    "passengers": 0
  },
  {
    "name": "Edmonton International Aéroport",
    "city": "Edmonton",
    "country": "Canada",
    "IATA": "YEG",
    "lat": 53.309700012200004,
    "lon": -113.580001831,
    "passengers": 0
  },
  {
    "name": "Arviat Aéroport",
    "city": "Eskimo Point",
    "country": "Canada",
    "IATA": "YEK",
    "lat": 61.0942001343,
    "lon": -94.07080078119999,
    "passengers": 0
  },
  {
    "name": "Estevan Aéroport",
    "city": "Estevan",
    "country": "Canada",
    "IATA": "YEN",
    "lat": 49.2103004456,
    "lon": -102.966003418,
    "passengers": 0
  },
  {
    "name": "Edson Aéroport",
    "city": "Edson",
    "country": "Canada",
    "IATA": "YET",
    "lat": 53.578899383499994,
    "lon": -116.464996338,
    "passengers": 0
  },
  {
    "name": "Eureka Aéroport",
    "city": "Eureka",
    "country": "Canada",
    "IATA": "YEU",
    "lat": 79.9946975708,
    "lon": -85.814201355,
    "passengers": 0
  },
  {
    "name": "Inuvik Mike Zubko Aéroport",
    "city": "Inuvik",
    "country": "Canada",
    "IATA": "YEV",
    "lat": 68.30419921880001,
    "lon": -133.483001709,
    "passengers": 0
  },
  {
    "name": "Iqaluit Aéroport",
    "city": "Iqaluit",
    "country": "Canada",
    "IATA": "YFB",
    "lat": 63.756402,
    "lon": -68.555801,
    "passengers": 0
  },
  {
    "name": "Fredericton Aéroport",
    "city": "Fredericton",
    "country": "Canada",
    "IATA": "YFC",
    "lat": 45.868900299072266,
    "lon": -66.53720092773438,
    "passengers": 0
  },
  {
    "name": "Forestville Aéroport",
    "city": "Forestville",
    "country": "Canada",
    "IATA": "YFE",
    "lat": 48.74610137939453,
    "lon": -69.09719848632812,
    "passengers": 0
  },
  {
    "name": "Flin Flon Aéroport",
    "city": "Flin Flon",
    "country": "Canada",
    "IATA": "YFO",
    "lat": 54.6781005859375,
    "lon": -101.68199920654297,
    "passengers": 0
  },
  {
    "name": "Fort Resolution Aéroport",
    "city": "Fort Resolution",
    "country": "Canada",
    "IATA": "YFR",
    "lat": 61.1808013916,
    "lon": -113.690002441,
    "passengers": 0
  },
  {
    "name": "Fort Simpson Aéroport",
    "city": "Fort Simpson",
    "country": "Canada",
    "IATA": "YFS",
    "lat": 61.76020050048828,
    "lon": -121.23699951171875,
    "passengers": 0
  },
  {
    "name": "Kingston Norman Rogers Aéroport",
    "city": "Kingston",
    "country": "Canada",
    "IATA": "YGK",
    "lat": 44.22529983520508,
    "lon": -76.5969009399414,
    "passengers": 0
  },
  {
    "name": "La Grande Rivière Aéroport",
    "city": "La Grande Riviere",
    "country": "Canada",
    "IATA": "YGL",
    "lat": 53.625301361083984,
    "lon": -77.7042007446289,
    "passengers": 0
  },
  {
    "name": "Gaspé (Michel-Pouliot) Aéroport",
    "city": "Gaspe",
    "country": "Canada",
    "IATA": "YGP",
    "lat": 48.7752990723,
    "lon": -64.4785995483,
    "passengers": 0
  },
  {
    "name": "Geraldton Greenstone Regional Aéroport",
    "city": "Geraldton",
    "country": "Canada",
    "IATA": "YGQ",
    "lat": 49.77830123901367,
    "lon": -86.93939971923828,
    "passengers": 0
  },
  {
    "name": "Îles-de-la-Madeleine Aéroport",
    "city": "Iles De La Madeleine",
    "country": "Canada",
    "IATA": "YGR",
    "lat": 47.42470169067383,
    "lon": -61.778099060058594,
    "passengers": 0
  },
  {
    "name": "Hudson Bay Aéroport",
    "city": "Hudson Bay",
    "country": "Canada",
    "IATA": "YHB",
    "lat": 52.8166999817,
    "lon": -102.310997009,
    "passengers": 0
  },
  {
    "name": "Dryden Regional Aéroport",
    "city": "Dryden",
    "country": "Canada",
    "IATA": "YHD",
    "lat": 49.83169937133789,
    "lon": -92.74420166015625,
    "passengers": 0
  },
  {
    "name": "Ulukhaktok Holman Aéroport",
    "city": "Holman Island",
    "country": "Canada",
    "IATA": "YHI",
    "lat": 70.76280212402344,
    "lon": -117.80599975585938,
    "passengers": 0
  },
  {
    "name": "Gjoa Haven Aéroport",
    "city": "Gjoa Haven",
    "country": "Canada",
    "IATA": "YHK",
    "lat": 68.635597229,
    "lon": -95.84970092770001,
    "passengers": 0
  },
  {
    "name": "John C. Munro Hamilton International Aéroport",
    "city": "Hamilton",
    "country": "Canada",
    "IATA": "YHM",
    "lat": 43.173599243199995,
    "lon": -79.93499755859999,
    "passengers": 0
  },
  {
    "name": "Montréal / Saint-Hubert Aéroport",
    "city": "Montreal",
    "country": "Canada",
    "IATA": "YHU",
    "lat": 45.5175018311,
    "lon": -73.4169006348,
    "passengers": 0
  },
  {
    "name": "Hay River / Merlyn Carter Aéroport",
    "city": "Hay River",
    "country": "Canada",
    "IATA": "YHY",
    "lat": 60.8396987915,
    "lon": -115.782997131,
    "passengers": 0
  },
  {
    "name": "Halifax / Stanfield International Aéroport",
    "city": "Halifax",
    "country": "Canada",
    "IATA": "YHZ",
    "lat": 44.8807983398,
    "lon": -63.5085983276,
    "passengers": 0
  },
  {
    "name": "Atikokan Municipal Aéroport",
    "city": "Atikokan",
    "country": "Canada",
    "IATA": "YIB",
    "lat": 48.7738990784,
    "lon": -91.6386032104,
    "passengers": 0
  },
  {
    "name": "Pond Inlet Aéroport",
    "city": "Pond Inlet",
    "country": "Canada",
    "IATA": "YIO",
    "lat": 72.6832962036,
    "lon": -77.9666976929,
    "passengers": 0
  },
  {
    "name": "St Jean Aéroport",
    "city": "St. Jean",
    "country": "Canada",
    "IATA": "YJN",
    "lat": 45.29439926147461,
    "lon": -73.28109741210938,
    "passengers": 0
  },
  {
    "name": "Stephenville Aéroport",
    "city": "Stephenville",
    "country": "Canada",
    "IATA": "YJT",
    "lat": 48.5442008972168,
    "lon": -58.54999923706055,
    "passengers": 0
  },
  {
    "name": "Kamloops Aéroport",
    "city": "Kamloops",
    "country": "Canada",
    "IATA": "YKA",
    "lat": 50.7022018433,
    "lon": -120.444000244,
    "passengers": 0
  },
  {
    "name": "Waterloo Aéroport",
    "city": "Waterloo",
    "country": "Canada",
    "IATA": "YKF",
    "lat": 43.460800170899994,
    "lon": -80.3786010742,
    "passengers": 0
  },
  {
    "name": "Schefferville Aéroport",
    "city": "Schefferville",
    "country": "Canada",
    "IATA": "YKL",
    "lat": 54.805301666259766,
    "lon": -66.8052978515625,
    "passengers": 0
  },
  {
    "name": "Kindersley Aéroport",
    "city": "Kindersley",
    "country": "Canada",
    "IATA": "YKY",
    "lat": 51.5175018311,
    "lon": -109.180999756,
    "passengers": 0
  },
  {
    "name": "Buttonville Municipal Aéroport",
    "city": "Toronto",
    "country": "Canada",
    "IATA": "YKZ",
    "lat": 43.86220169067383,
    "lon": -79.37000274658203,
    "passengers": 0
  },
  {
    "name": "Chapleau Aéroport",
    "city": "Chapleau",
    "country": "Canada",
    "IATA": "YLD",
    "lat": 47.81999969482422,
    "lon": -83.3467025756836,
    "passengers": 0
  },
  {
    "name": "Meadow Lake Aéroport",
    "city": "Meadow Lake",
    "country": "Canada",
    "IATA": "YLJ",
    "lat": 54.125301361083984,
    "lon": -108.52300262451172,
    "passengers": 0
  },
  {
    "name": "Lloydminster Aéroport",
    "city": "Lloydminster",
    "country": "Canada",
    "IATA": "YLL",
    "lat": 53.309200286865234,
    "lon": -110.072998046875,
    "passengers": 0
  },
  {
    "name": "Alert Aéroport",
    "city": "Alert",
    "country": "Canada",
    "IATA": "YLT",
    "lat": 82.51779937740001,
    "lon": -62.2806015015,
    "passengers": 0
  },
  {
    "name": "Kelowna International Aéroport",
    "city": "Kelowna",
    "country": "Canada",
    "IATA": "YLW",
    "lat": 49.9561004639,
    "lon": -119.377998352,
    "passengers": 0
  },
  {
    "name": "Mayo Aéroport",
    "city": "Mayo",
    "country": "Canada",
    "IATA": "YMA",
    "lat": 63.61640167236328,
    "lon": -135.8679962158203,
    "passengers": 0
  },
  {
    "name": "Moose Jaw Air Vice Marshal C. M. McEwen Aéroport",
    "city": "Moose Jaw",
    "country": "Canada",
    "IATA": "YMJ",
    "lat": 50.330299377441406,
    "lon": -105.55899810791016,
    "passengers": 0
  },
  {
    "name": "Fort McMurray Aéroport",
    "city": "Fort Mcmurray",
    "country": "Canada",
    "IATA": "YMM",
    "lat": 56.653301239,
    "lon": -111.222000122,
    "passengers": 0
  },
  {
    "name": "Moosonee Aéroport",
    "city": "Moosonee",
    "country": "Canada",
    "IATA": "YMO",
    "lat": 51.291099548339844,
    "lon": -80.60780334472656,
    "passengers": 0
  },
  {
    "name": "Maniwaki Aéroport",
    "city": "Maniwaki",
    "country": "Canada",
    "IATA": "YMW",
    "lat": 46.2728004456,
    "lon": -75.9906005859,
    "passengers": 0
  },
  {
    "name": "Montreal International (Mirabel) Aéroport",
    "city": "Montreal",
    "country": "Canada",
    "IATA": "YMX",
    "lat": 45.679501,
    "lon": -74.038696,
    "passengers": 0
  },
  {
    "name": "Natashquan Aéroport",
    "city": "Natashquan",
    "country": "Canada",
    "IATA": "YNA",
    "lat": 50.189998626708984,
    "lon": -61.78919982910156,
    "passengers": 0
  },
  {
    "name": "Ottawa / Gatineau Aéroport",
    "city": "Gatineau",
    "country": "Canada",
    "IATA": "YND",
    "lat": 45.521701812699995,
    "lon": -75.5635986328,
    "passengers": 0
  },
  {
    "name": "Matagami Aéroport",
    "city": "Matagami",
    "country": "Canada",
    "IATA": "YNM",
    "lat": 49.76169967651367,
    "lon": -77.80280303955078,
    "passengers": 0
  },
  {
    "name": "Old Crow Aéroport",
    "city": "Old Crow",
    "country": "Canada",
    "IATA": "YOC",
    "lat": 67.57060241699219,
    "lon": -139.83900451660156,
    "passengers": 0
  },
  {
    "name": "CFB Cold Lake",
    "city": "Cold Lake",
    "country": "Canada",
    "IATA": "YOD",
    "lat": 54.404998779296875,
    "lon": -110.27899932861328,
    "passengers": 0
  },
  {
    "name": "High Level Aéroport",
    "city": "High Level",
    "country": "Canada",
    "IATA": "YOJ",
    "lat": 58.62139892578125,
    "lon": -117.16500091552734,
    "passengers": 0
  },
  {
    "name": "Ottawa Macdonald-Cartier International Aéroport",
    "city": "Ottawa",
    "country": "Canada",
    "IATA": "YOW",
    "lat": 45.3224983215332,
    "lon": -75.66919708251953,
    "passengers": 0
  },
  {
    "name": "Prince Albert Glass Field",
    "city": "Prince Albert",
    "country": "Canada",
    "IATA": "YPA",
    "lat": 53.214199066199996,
    "lon": -105.672996521,
    "passengers": 0
  },
  {
    "name": "Peace River Aéroport",
    "city": "Peace River",
    "country": "Canada",
    "IATA": "YPE",
    "lat": 56.226898,
    "lon": -117.446999,
    "passengers": 0
  },
  {
    "name": "Southport Aéroport",
    "city": "Portage-la-prairie",
    "country": "Canada",
    "IATA": "YPG",
    "lat": 49.903099,
    "lon": -98.273817,
    "passengers": 0
  },
  {
    "name": "Pickle Lake Aéroport",
    "city": "Pickle Lake",
    "country": "Canada",
    "IATA": "YPL",
    "lat": 51.4463996887207,
    "lon": -90.21420288085938,
    "passengers": 0
  },
  {
    "name": "Port Menier Aéroport",
    "city": "Port Menier",
    "country": "Canada",
    "IATA": "YPN",
    "lat": 49.83639907836914,
    "lon": -64.2885971069336,
    "passengers": 0
  },
  {
    "name": "Peterborough Aéroport",
    "city": "Peterborough",
    "country": "Canada",
    "IATA": "YPQ",
    "lat": 44.22999954223633,
    "lon": -78.36329650878906,
    "passengers": 0
  },
  {
    "name": "Prince Rupert Aéroport",
    "city": "Prince Pupert",
    "country": "Canada",
    "IATA": "YPR",
    "lat": 54.286098480199996,
    "lon": -130.445007324,
    "passengers": 0
  },
  {
    "name": "Fort Chipewyan Aéroport",
    "city": "Fort Chipewyan",
    "country": "Canada",
    "IATA": "YPY",
    "lat": 58.7672004699707,
    "lon": -111.11699676513672,
    "passengers": 0
  },
  {
    "name": "Muskoka Aéroport",
    "city": "Muskoka",
    "country": "Canada",
    "IATA": "YQA",
    "lat": 44.974700927734375,
    "lon": -79.30329895019531,
    "passengers": 0
  },
  {
    "name": "Quebec Jean Lesage International Aéroport",
    "city": "Quebec",
    "country": "Canada",
    "IATA": "YQB",
    "lat": 46.7911,
    "lon": -71.393303,
    "passengers": 0
  },
  {
    "name": "Red Deer Regional Aéroport",
    "city": "Red Deer Industrial",
    "country": "Canada",
    "IATA": "YQF",
    "lat": 52.18220138549805,
    "lon": -113.89399719238281,
    "passengers": 0
  },
  {
    "name": "Windsor Aéroport",
    "city": "Windsor",
    "country": "Canada",
    "IATA": "YQG",
    "lat": 42.27560043334961,
    "lon": -82.95559692382812,
    "passengers": 0
  },
  {
    "name": "Watson Lake Aéroport",
    "city": "Watson Lake",
    "country": "Canada",
    "IATA": "YQH",
    "lat": 60.11640167236328,
    "lon": -128.82200622558594,
    "passengers": 0
  },
  {
    "name": "Kenora Aéroport",
    "city": "Kenora",
    "country": "Canada",
    "IATA": "YQK",
    "lat": 49.788299560546875,
    "lon": -94.36309814453125,
    "passengers": 0
  },
  {
    "name": "Lethbridge County Aéroport",
    "city": "Lethbridge",
    "country": "Canada",
    "IATA": "YQL",
    "lat": 49.6302986145,
    "lon": -112.800003052,
    "passengers": 0
  },
  {
    "name": "Greater Moncton International Aéroport",
    "city": "Moncton",
    "country": "Canada",
    "IATA": "YQM",
    "lat": 46.11220169067383,
    "lon": -64.67859649658203,
    "passengers": 0
  },
  {
    "name": "Comox Aéroport",
    "city": "Comox",
    "country": "Canada",
    "IATA": "YQQ",
    "lat": 49.71080017089844,
    "lon": -124.88700103759766,
    "passengers": 0
  },
  {
    "name": "Regina International Aéroport",
    "city": "Regina",
    "country": "Canada",
    "IATA": "YQR",
    "lat": 50.43190002441406,
    "lon": -104.66600036621094,
    "passengers": 0
  },
  {
    "name": "Thunder Bay Aéroport",
    "city": "Thunder Bay",
    "country": "Canada",
    "IATA": "YQT",
    "lat": 48.37189865112305,
    "lon": -89.32389831542969,
    "passengers": 0
  },
  {
    "name": "Grande Prairie Aéroport",
    "city": "Grande Prairie",
    "country": "Canada",
    "IATA": "YQU",
    "lat": 55.1796989441,
    "lon": -118.885002136,
    "passengers": 0
  },
  {
    "name": "Yorkton Municipal Aéroport",
    "city": "Yorkton",
    "country": "Canada",
    "IATA": "YQV",
    "lat": 51.26470184326172,
    "lon": -102.46199798583984,
    "passengers": 0
  },
  {
    "name": "North Battleford Aéroport",
    "city": "North Battleford",
    "country": "Canada",
    "IATA": "YQW",
    "lat": 52.76919937133789,
    "lon": -108.24400329589844,
    "passengers": 0
  },
  {
    "name": "Gander International Aéroport",
    "city": "Gander",
    "country": "Canada",
    "IATA": "YQX",
    "lat": 48.9369010925293,
    "lon": -54.56809997558594,
    "passengers": 0
  },
  {
    "name": "Sydney / J.A. Douglas McCurdy Aéroport",
    "city": "Sydney",
    "country": "Canada",
    "IATA": "YQY",
    "lat": 46.1614,
    "lon": -60.047798,
    "passengers": 0
  },
  {
    "name": "Quesnel Aéroport",
    "city": "Quesnel",
    "country": "Canada",
    "IATA": "YQZ",
    "lat": 53.026100158691406,
    "lon": -122.51000213623047,
    "passengers": 0
  },
  {
    "name": "Resolute Bay Aéroport",
    "city": "Resolute",
    "country": "Canada",
    "IATA": "YRB",
    "lat": 74.7169036865,
    "lon": -94.9693984985,
    "passengers": 0
  },
  {
    "name": "Rivière-du-Loup Aéroport",
    "city": "Riviere Du Loup",
    "country": "Canada",
    "IATA": "YRI",
    "lat": 47.764400482177734,
    "lon": -69.58470153808594,
    "passengers": 0
  },
  {
    "name": "Roberval Aéroport",
    "city": "Roberval",
    "country": "Canada",
    "IATA": "YRJ",
    "lat": 48.52000045776367,
    "lon": -72.2656021118164,
    "passengers": 0
  },
  {
    "name": "Rocky Mountain House Aéroport",
    "city": "Rocky Mountain House",
    "country": "Canada",
    "IATA": "YRM",
    "lat": 52.4296989441,
    "lon": -114.903999329,
    "passengers": 0
  },
  {
    "name": "Rankin Inlet Aéroport",
    "city": "Rankin Inlet",
    "country": "Canada",
    "IATA": "YRT",
    "lat": 62.8114013672,
    "lon": -92.1157989502,
    "passengers": 0
  },
  {
    "name": "Sudbury Aéroport",
    "city": "Sudbury",
    "country": "Canada",
    "IATA": "YSB",
    "lat": 46.625,
    "lon": -80.79889678955078,
    "passengers": 0
  },
  {
    "name": "Sherbrooke Aéroport",
    "city": "Sherbrooke",
    "country": "Canada",
    "IATA": "YSC",
    "lat": 45.4385986328125,
    "lon": -71.69139862060547,
    "passengers": 0
  },
  {
    "name": "Saint John Aéroport",
    "city": "St. John",
    "country": "Canada",
    "IATA": "YSJ",
    "lat": 45.31610107421875,
    "lon": -65.89029693603516,
    "passengers": 0
  },
  {
    "name": "Fort Smith Aéroport",
    "city": "Fort Smith",
    "country": "Canada",
    "IATA": "YSM",
    "lat": 60.020301818847656,
    "lon": -111.96199798583984,
    "passengers": 0
  },
  {
    "name": "Nanisivik Aéroport",
    "city": "Nanisivik",
    "country": "Canada",
    "IATA": "YSR",
    "lat": 72.982201,
    "lon": -84.613602,
    "passengers": 0
  },
  {
    "name": "Summerside Aéroport",
    "city": "Summerside",
    "country": "Canada",
    "IATA": "YSU",
    "lat": 46.44060134887695,
    "lon": -63.83359909057617,
    "passengers": 0
  },
  {
    "name": "Sachs Harbour (David Nasogaluak Jr. Saaryuaq) Aéroport",
    "city": "Sachs Harbour",
    "country": "Canada",
    "IATA": "YSY",
    "lat": 71.9938964844,
    "lon": -125.242996216,
    "passengers": 0
  },
  {
    "name": "Cape Dorset Aéroport",
    "city": "Cape Dorset",
    "country": "Canada",
    "IATA": "YTE",
    "lat": 64.2300033569,
    "lon": -76.5267028809,
    "passengers": 0
  },
  {
    "name": "Thompson Aéroport",
    "city": "Thompson",
    "country": "Canada",
    "IATA": "YTH",
    "lat": 55.80110168457031,
    "lon": -97.86419677734375,
    "passengers": 0
  },
  {
    "name": "CFB Trenton",
    "city": "Trenton",
    "country": "Canada",
    "IATA": "YTR",
    "lat": 44.118900299072266,
    "lon": -77.5280990600586,
    "passengers": 0
  },
  {
    "name": "Timmins/Victor M. Power",
    "city": "Timmins",
    "country": "Canada",
    "IATA": "YTS",
    "lat": 48.569698333699996,
    "lon": -81.376701355,
    "passengers": 0
  },
  {
    "name": "Billy Bishop Toronto City Centre Aéroport",
    "city": "Toronto",
    "country": "Canada",
    "IATA": "YTZ",
    "lat": 43.627499,
    "lon": -79.396202,
    "passengers": 0
  },
  {
    "name": "Tuktoyaktuk Aéroport",
    "city": "Tuktoyaktuk",
    "country": "Canada",
    "IATA": "YUB",
    "lat": 69.43329620361328,
    "lon": -133.0260009765625,
    "passengers": 0
  },
  {
    "name": "Montreal / Pierre Elliott Trudeau International Aéroport",
    "city": "Montreal",
    "country": "Canada",
    "IATA": "YUL",
    "lat": 45.4706001282,
    "lon": -73.7407989502,
    "passengers": 0
  },
  {
    "name": "Repulse Bay Aéroport",
    "city": "Repulse Bay",
    "country": "Canada",
    "IATA": "YUT",
    "lat": 66.5214004517,
    "lon": -86.22470092770001,
    "passengers": 0
  },
  {
    "name": "Hall Beach Aéroport",
    "city": "Hall Beach",
    "country": "Canada",
    "IATA": "YUX",
    "lat": 68.77610015869999,
    "lon": -81.2425,
    "passengers": 0
  },
  {
    "name": "Rouyn Noranda Aéroport",
    "city": "Rouyn",
    "country": "Canada",
    "IATA": "YUY",
    "lat": 48.20610046386719,
    "lon": -78.83560180664062,
    "passengers": 0
  },
  {
    "name": "La Ronge Aéroport",
    "city": "La Ronge",
    "country": "Canada",
    "IATA": "YVC",
    "lat": 55.151401519800004,
    "lon": -105.262001038,
    "passengers": 0
  },
  {
    "name": "Vermilion Aéroport",
    "city": "Vermillion",
    "country": "Canada",
    "IATA": "YVG",
    "lat": 53.355800628699996,
    "lon": -110.823997498,
    "passengers": 0
  },
  {
    "name": "Qikiqtarjuaq Aéroport",
    "city": "Broughton Island",
    "country": "Canada",
    "IATA": "YVM",
    "lat": 67.5457992554,
    "lon": -64.03140258789999,
    "passengers": 0
  },
  {
    "name": "Val-d'Or Aéroport",
    "city": "Val D'or",
    "country": "Canada",
    "IATA": "YVO",
    "lat": 48.0532989502,
    "lon": -77.7827987671,
    "passengers": 0
  },
  {
    "name": "Kuujjuaq Aéroport",
    "city": "Quujjuaq",
    "country": "Canada",
    "IATA": "YVP",
    "lat": 58.096099853515625,
    "lon": -68.4269027709961,
    "passengers": 0
  },
  {
    "name": "Norman Wells Aéroport",
    "city": "Norman Wells",
    "country": "Canada",
    "IATA": "YVQ",
    "lat": 65.28160095214844,
    "lon": -126.7979965209961,
    "passengers": 0
  },
  {
    "name": "Vancouver International Aéroport",
    "city": "Vancouver",
    "country": "Canada",
    "IATA": "YVR",
    "lat": 49.193901062,
    "lon": -123.183998108,
    "passengers": 20486935
  },
  {
    "name": "Buffalo Narrows Aéroport",
    "city": "Buffalo Narrows",
    "country": "Canada",
    "IATA": "YVT",
    "lat": 55.8418998718,
    "lon": -108.417999268,
    "passengers": 0
  },
  {
    "name": "Wiarton Aéroport",
    "city": "Wiarton",
    "country": "Canada",
    "IATA": "YVV",
    "lat": 44.7458,
    "lon": -81.107201,
    "passengers": 0
  },
  {
    "name": "Petawawa Aéroport",
    "city": "Petawawa",
    "country": "Canada",
    "IATA": "YWA",
    "lat": 45.95220184326172,
    "lon": -77.31919860839844,
    "passengers": 0
  },
  {
    "name": "Winnipeg / James Armstrong Richardson International Aéroport",
    "city": "Winnipeg",
    "country": "Canada",
    "IATA": "YWG",
    "lat": 49.909999847399995,
    "lon": -97.2398986816,
    "passengers": 0
  },
  {
    "name": "Wabush Aéroport",
    "city": "Wabush",
    "country": "Canada",
    "IATA": "YWK",
    "lat": 52.92190170288086,
    "lon": -66.8644027709961,
    "passengers": 0
  },
  {
    "name": "Williams Lake Aéroport",
    "city": "Williams Lake",
    "country": "Canada",
    "IATA": "YWL",
    "lat": 52.1831016541,
    "lon": -122.054000854,
    "passengers": 0
  },
  {
    "name": "Wrigley Aéroport",
    "city": "Wrigley",
    "country": "Canada",
    "IATA": "YWY",
    "lat": 63.20940017700195,
    "lon": -123.43699645996094,
    "passengers": 0
  },
  {
    "name": "Cranbrook/Canadian Rockies International Aéroport",
    "city": "Cranbrook",
    "country": "Canada",
    "IATA": "YXC",
    "lat": 49.610801696777,
    "lon": -115.78199768066,
    "passengers": 0
  },
  {
    "name": "Edmonton City Centre (Blatchford Field) Aéroport",
    "city": "Edmonton",
    "country": "Canada",
    "IATA": "YXD",
    "lat": 53.5724983215,
    "lon": -113.521003723,
    "passengers": 0
  },
  {
    "name": "Saskatoon John G. Diefenbaker International Aéroport",
    "city": "Saskatoon",
    "country": "Canada",
    "IATA": "YXE",
    "lat": 52.170799255371094,
    "lon": -106.69999694824219,
    "passengers": 0
  },
  {
    "name": "Medicine Hat Aéroport",
    "city": "Medicine Hat",
    "country": "Canada",
    "IATA": "YXH",
    "lat": 50.01890182495117,
    "lon": -110.72100067138672,
    "passengers": 0
  },
  {
    "name": "Fort St John Aéroport",
    "city": "Fort Saint John",
    "country": "Canada",
    "IATA": "YXJ",
    "lat": 56.23809814453125,
    "lon": -120.73999786376953,
    "passengers": 0
  },
  {
    "name": "Sioux Lookout Aéroport",
    "city": "Sioux Lookout",
    "country": "Canada",
    "IATA": "YXL",
    "lat": 50.11389923095703,
    "lon": -91.9052963256836,
    "passengers": 0
  },
  {
    "name": "Pangnirtung Aéroport",
    "city": "Pangnirtung",
    "country": "Canada",
    "IATA": "YXP",
    "lat": 66.1449966431,
    "lon": -65.71360015869999,
    "passengers": 0
  },
  {
    "name": "Earlton (Timiskaming Regional) Aéroport",
    "city": "Earlton",
    "country": "Canada",
    "IATA": "YXR",
    "lat": 47.697400654599996,
    "lon": -79.8473453522,
    "passengers": 0
  },
  {
    "name": "Prince George Aéroport",
    "city": "Prince George",
    "country": "Canada",
    "IATA": "YXS",
    "lat": 53.8894004822,
    "lon": -122.679000854,
    "passengers": 0
  },
  {
    "name": "Northwest Regional Aéroport Terrace-Kitimat",
    "city": "Terrace",
    "country": "Canada",
    "IATA": "YXT",
    "lat": 54.468498,
    "lon": -128.576009,
    "passengers": 0
  },
  {
    "name": "London Aéroport",
    "city": "London",
    "country": "Canada",
    "IATA": "YXU",
    "lat": 43.035599,
    "lon": -81.1539,
    "passengers": 0
  },
  {
    "name": "Abbotsford Aéroport",
    "city": "Abbotsford",
    "country": "Canada",
    "IATA": "YXX",
    "lat": 49.025299072265625,
    "lon": -122.36100006103516,
    "passengers": 0
  },
  {
    "name": "Whitehorse / Erik Nielsen International Aéroport",
    "city": "Whitehorse",
    "country": "Canada",
    "IATA": "YXY",
    "lat": 60.7095985413,
    "lon": -135.067001343,
    "passengers": 0
  },
  {
    "name": "North Bay Aéroport",
    "city": "North Bay",
    "country": "Canada",
    "IATA": "YYB",
    "lat": 46.36360168457031,
    "lon": -79.42279815673828,
    "passengers": 0
  },
  {
    "name": "Calgary International Aéroport",
    "city": "Calgary",
    "country": "Canada",
    "IATA": "YYC",
    "lat": 51.113899231,
    "lon": -114.019996643,
    "passengers": 15475759
  },
  {
    "name": "Smithers Aéroport",
    "city": "Smithers",
    "country": "Canada",
    "IATA": "YYD",
    "lat": 54.82469940185547,
    "lon": -127.18299865722656,
    "passengers": 0
  },
  {
    "name": "Fort Nelson Aéroport",
    "city": "Fort Nelson",
    "country": "Canada",
    "IATA": "YYE",
    "lat": 58.8363990784,
    "lon": -122.597000122,
    "passengers": 0
  },
  {
    "name": "Penticton Aéroport",
    "city": "Penticton",
    "country": "Canada",
    "IATA": "YYF",
    "lat": 49.46310043334961,
    "lon": -119.60199737548828,
    "passengers": 0
  },
  {
    "name": "Charlottetown Aéroport",
    "city": "Charlottetown",
    "country": "Canada",
    "IATA": "YYG",
    "lat": 46.290000915527344,
    "lon": -63.12110137939453,
    "passengers": 0
  },
  {
    "name": "Taloyoak Aéroport",
    "city": "Spence Bay",
    "country": "Canada",
    "IATA": "YYH",
    "lat": 69.5466995239,
    "lon": -93.5766983032,
    "passengers": 0
  },
  {
    "name": "Victoria International Aéroport",
    "city": "Victoria",
    "country": "Canada",
    "IATA": "YYJ",
    "lat": 48.646900177,
    "lon": -123.426002502,
    "passengers": 0
  },
  {
    "name": "Lynn Lake Aéroport",
    "city": "Lynn Lake",
    "country": "Canada",
    "IATA": "YYL",
    "lat": 56.86389923095703,
    "lon": -101.07599639892578,
    "passengers": 0
  },
  {
    "name": "Swift Current Aéroport",
    "city": "Swift Current",
    "country": "Canada",
    "IATA": "YYN",
    "lat": 50.291900634799994,
    "lon": -107.691001892,
    "passengers": 0
  },
  {
    "name": "Churchill Aéroport",
    "city": "Churchill",
    "country": "Canada",
    "IATA": "YYQ",
    "lat": 58.739200592041016,
    "lon": -94.06500244140625,
    "passengers": 0
  },
  {
    "name": "Goose Bay Aéroport",
    "city": "Goose Bay",
    "country": "Canada",
    "IATA": "YYR",
    "lat": 53.3191986084,
    "lon": -60.4258003235,
    "passengers": 0
  },
  {
    "name": "St. John's International Aéroport",
    "city": "St. John's",
    "country": "Canada",
    "IATA": "YYT",
    "lat": 47.618598938,
    "lon": -52.7518997192,
    "passengers": 0
  },
  {
    "name": "Kapuskasing Aéroport",
    "city": "Kapuskasing",
    "country": "Canada",
    "IATA": "YYU",
    "lat": 49.41389846801758,
    "lon": -82.46749877929688,
    "passengers": 0
  },
  {
    "name": "Armstrong Aéroport",
    "city": "Armstrong",
    "country": "Canada",
    "IATA": "YYW",
    "lat": 50.29029846191406,
    "lon": -88.90969848632812,
    "passengers": 0
  },
  {
    "name": "Mont Joli Aéroport",
    "city": "Mont Joli",
    "country": "Canada",
    "IATA": "YYY",
    "lat": 48.60860061645508,
    "lon": -68.20809936523438,
    "passengers": 0
  },
  {
    "name": "Lester B. Pearson International Aéroport",
    "city": "Toronto",
    "country": "Canada",
    "IATA": "YYZ",
    "lat": 43.6772003174,
    "lon": -79.63059997559999,
    "passengers": 0
  },
  {
    "name": "Downsview Aéroport",
    "city": "Toronto",
    "country": "Canada",
    "IATA": "YZD",
    "lat": 43.74250030517578,
    "lon": -79.4655990600586,
    "passengers": 0
  },
  {
    "name": "Gore Bay Manitoulin Aéroport",
    "city": "Gore Bay",
    "country": "Canada",
    "IATA": "YZE",
    "lat": 45.88529968261719,
    "lon": -82.56780242919922,
    "passengers": 0
  },
  {
    "name": "Yellowknife Aéroport",
    "city": "Yellowknife",
    "country": "Canada",
    "IATA": "YZF",
    "lat": 62.462799072265625,
    "lon": -114.44000244140625,
    "passengers": 0
  },
  {
    "name": "Slave Lake Aéroport",
    "city": "Slave Lake",
    "country": "Canada",
    "IATA": "YZH",
    "lat": 55.2930984497,
    "lon": -114.777000427,
    "passengers": 0
  },
  {
    "name": "Sandspit Aéroport",
    "city": "Sandspit",
    "country": "Canada",
    "IATA": "YZP",
    "lat": 53.25429916379999,
    "lon": -131.813995361,
    "passengers": 0
  },
  {
    "name": "Chris Hadfield Aéroport",
    "city": "Sarnia",
    "country": "Canada",
    "IATA": "YZR",
    "lat": 42.9994010925293,
    "lon": -82.30889892578125,
    "passengers": 0
  },
  {
    "name": "Port Hardy Aéroport",
    "city": "Port Hardy",
    "country": "Canada",
    "IATA": "YZT",
    "lat": 50.680599212646484,
    "lon": -127.36699676513672,
    "passengers": 0
  },
  {
    "name": "Whitecourt Aéroport",
    "city": "Whitecourt",
    "country": "Canada",
    "IATA": "YZU",
    "lat": 54.14390182495117,
    "lon": -115.78700256347656,
    "passengers": 0
  },
  {
    "name": "Sept-Îles Aéroport",
    "city": "Sept-iles",
    "country": "Canada",
    "IATA": "YZV",
    "lat": 50.22330093383789,
    "lon": -66.2656021118164,
    "passengers": 0
  },
  {
    "name": "Teslin Aéroport",
    "city": "Teslin",
    "country": "Canada",
    "IATA": "YZW",
    "lat": 60.17279815673828,
    "lon": -132.7429962158203,
    "passengers": 0
  },
  {
    "name": "CFB Greenwood",
    "city": "Greenwood",
    "country": "Canada",
    "IATA": "YZX",
    "lat": 44.98440170288086,
    "lon": -64.91690063476562,
    "passengers": 0
  },
  {
    "name": "Faro Aéroport",
    "city": "Faro",
    "country": "Canada",
    "IATA": "ZFA",
    "lat": 62.20750045776367,
    "lon": -133.37600708007812,
    "passengers": 7632857
  },
  {
    "name": "Fort Mcpherson Aéroport",
    "city": "Fort Mcpherson",
    "country": "Canada",
    "IATA": "ZFM",
    "lat": 67.40750122070312,
    "lon": -134.86099243164062,
    "passengers": 0
  },
  {
    "name": "Blida Aéroport",
    "city": "Blida",
    "country": "Algeria",
    "IATA": "QLD",
    "lat": 36.50360107421875,
    "lon": 2.8141698837280273,
    "passengers": 0
  },
  {
    "name": "Bou Saada Aéroport",
    "city": "Bou Saada",
    "country": "Algeria",
    "IATA": "BUJ",
    "lat": 35.33250045776367,
    "lon": 4.206389904022217,
    "passengers": 0
  },
  {
    "name": "Soummam Aéroport",
    "city": "Bejaja",
    "country": "Algeria",
    "IATA": "BJA",
    "lat": 36.7120018005,
    "lon": 5.0699200630200005,
    "passengers": 0
  },
  {
    "name": "Houari Boumediene Aéroport",
    "city": "Algier",
    "country": "Algeria",
    "IATA": "ALG",
    "lat": 36.691001892089844,
    "lon": 3.215409994125366,
    "passengers": 7500000
  },
  {
    "name": "Djanet Inedbirene Aéroport",
    "city": "Djanet",
    "country": "Algeria",
    "IATA": "DJG",
    "lat": 24.292801,
    "lon": 9.45244,
    "passengers": 0
  },
  {
    "name": "Illizi Takhamalt Aéroport",
    "city": "Illizi",
    "country": "Algeria",
    "IATA": "VVZ",
    "lat": 26.7234992981,
    "lon": 8.62265014648,
    "passengers": 0
  },
  {
    "name": "Aguenar – Hadj Bey Akhamok Aéroport",
    "city": "Tamanrasset",
    "country": "Algeria",
    "IATA": "TMR",
    "lat": 22.8115005493,
    "lon": 5.45107984543,
    "passengers": 0
  },
  {
    "name": "Jijel Ferhat Abbas Aéroport",
    "city": "Jijel",
    "country": "Algeria",
    "IATA": "GJL",
    "lat": 36.7951011658,
    "lon": 5.87361001968,
    "passengers": 0
  },
  {
    "name": "Mecheria Aéroport",
    "city": "Mecheria",
    "country": "Algeria",
    "IATA": "MZW",
    "lat": 33.535900116,
    "lon": -0.242353007197,
    "passengers": 0
  },
  {
    "name": "Rabah Bitat Aéroport",
    "city": "Annaba",
    "country": "Algeria",
    "IATA": "AAE",
    "lat": 36.822201,
    "lon": 7.809174,
    "passengers": 0
  },
  {
    "name": "Mohamed Boudiaf International Aéroport",
    "city": "Constantine",
    "country": "Algeria",
    "IATA": "CZL",
    "lat": 36.2760009765625,
    "lon": 6.620389938354492,
    "passengers": 0
  },
  {
    "name": "Cheikh Larbi Tébessi Aéroport",
    "city": "Tebessa",
    "country": "Algeria",
    "IATA": "TEE",
    "lat": 35.4315986633,
    "lon": 8.12071990967,
    "passengers": 0
  },
  {
    "name": "Hassi R'Mel Aéroport",
    "city": "Tilrempt",
    "country": "Algeria",
    "IATA": "HRM",
    "lat": 32.93040084838867,
    "lon": 3.311539888381958,
    "passengers": 0
  },
  {
    "name": "Bou Chekif Aéroport",
    "city": "Tiaret",
    "country": "Algeria",
    "IATA": "TID",
    "lat": 35.3410987854,
    "lon": 1.46315002441,
    "passengers": 0
  },
  {
    "name": "Tindouf Aéroport",
    "city": "Tindouf",
    "country": "Algeria",
    "IATA": "TIN",
    "lat": 27.7003993988,
    "lon": -8.167099952700001,
    "passengers": 0
  },
  {
    "name": "Ech Cheliff Aéroport",
    "city": "Ech-cheliff",
    "country": "Algeria",
    "IATA": "CFK",
    "lat": 36.2126998901,
    "lon": 1.33176994324,
    "passengers": 0
  },
  {
    "name": "Tafaraoui Aéroport",
    "city": "Oran",
    "country": "Algeria",
    "IATA": "TAF",
    "lat": 35.54240036010742,
    "lon": -0.5322780013084412,
    "passengers": 0
  },
  {
    "name": "Zenata – Messali El Hadj Aéroport",
    "city": "Tlemcen",
    "country": "Algeria",
    "IATA": "TLM",
    "lat": 35.0167007446,
    "lon": -1.45000004768,
    "passengers": 0
  },
  {
    "name": "Es Senia Aéroport",
    "city": "Oran",
    "country": "Algeria",
    "IATA": "ORN",
    "lat": 35.6239013672,
    "lon": -0.6211829781529999,
    "passengers": 0
  },
  {
    "name": "Sidi Bel Abbes Aéroport",
    "city": "Sidi Bel Abbes",
    "country": "Algeria",
    "IATA": "BFW",
    "lat": 35.1717987061,
    "lon": -0.593275010586,
    "passengers": 0
  },
  {
    "name": "Ghriss Aéroport",
    "city": "Ghriss",
    "country": "Algeria",
    "IATA": "MUW",
    "lat": 35.207698822021484,
    "lon": 0.14714199304580688,
    "passengers": 0
  },
  {
    "name": "Touat Cheikh Sidi Mohamed Belkebir Aéroport",
    "city": "Adrar",
    "country": "Algeria",
    "IATA": "AZR",
    "lat": 27.837600708007812,
    "lon": -0.18641400337219238,
    "passengers": 0
  },
  {
    "name": "Biskra Aéroport",
    "city": "Biskra",
    "country": "Algeria",
    "IATA": "BSK",
    "lat": 34.793300628699996,
    "lon": 5.73823022842,
    "passengers": 0
  },
  {
    "name": "El Golea Aéroport",
    "city": "El Golea",
    "country": "Algeria",
    "IATA": "ELG",
    "lat": 30.571300506591797,
    "lon": 2.8595900535583496,
    "passengers": 0
  },
  {
    "name": "Noumérat - Moufdi Zakaria Aéroport",
    "city": "Ghardaia",
    "country": "Algeria",
    "IATA": "GHA",
    "lat": 32.38410186767578,
    "lon": 3.794110059738159,
    "passengers": 0
  },
  {
    "name": "Oued Irara Aéroport",
    "city": "Hassi Messaoud",
    "country": "Algeria",
    "IATA": "HME",
    "lat": 31.673000335699996,
    "lon": 6.140439987180001,
    "passengers": 0
  },
  {
    "name": "In Salah Aéroport",
    "city": "In Salah",
    "country": "Algeria",
    "IATA": "INZ",
    "lat": 27.250999450699997,
    "lon": 2.51202011108,
    "passengers": 0
  },
  {
    "name": "Touggourt Sidi Madhi Aéroport",
    "city": "Touggourt",
    "country": "Algeria",
    "IATA": "TGR",
    "lat": 33.06779861450195,
    "lon": 6.088669776916504,
    "passengers": 0
  },
  {
    "name": "Laghouat Aéroport",
    "city": "Laghouat",
    "country": "Algeria",
    "IATA": "LOO",
    "lat": 33.764400482199996,
    "lon": 2.92833995819,
    "passengers": 0
  },
  {
    "name": "Timimoun Aéroport",
    "city": "Timimoun",
    "country": "Algeria",
    "IATA": "TMX",
    "lat": 29.2371006012,
    "lon": 0.276033014059,
    "passengers": 0
  },
  {
    "name": "Ain el Beida Aéroport",
    "city": "Ouargla",
    "country": "Algeria",
    "IATA": "OGX",
    "lat": 31.917200088500977,
    "lon": 5.412779808044434,
    "passengers": 0
  },
  {
    "name": "In Aménas Aéroport",
    "city": "Zarzaitine",
    "country": "Algeria",
    "IATA": "IAM",
    "lat": 28.0515,
    "lon": 9.64291,
    "passengers": 0
  },
  {
    "name": "Cadjehoun Aéroport",
    "city": "Cotonou",
    "country": "Benin",
    "IATA": "COO",
    "lat": 6.357230186462402,
    "lon": 2.384350061416626,
    "passengers": 0
  },
  {
    "name": "Ouagadougou Aéroport",
    "city": "Ouagadougou",
    "country": "Burkina Faso",
    "IATA": "OUA",
    "lat": 12.35319995880127,
    "lon": -1.5124200582504272,
    "passengers": 0
  },
  {
    "name": "Bobo Dioulasso Aéroport",
    "city": "Bobo-dioulasso",
    "country": "Burkina Faso",
    "IATA": "BOY",
    "lat": 11.160099983215332,
    "lon": -4.33096981048584,
    "passengers": 0
  },
  {
    "name": "Kotoka International Aéroport",
    "city": "Accra",
    "country": "Ghana",
    "IATA": "ACC",
    "lat": 5.605189800262451,
    "lon": -0.16678600013256073,
    "passengers": 0
  },
  {
    "name": "Tamale Aéroport",
    "city": "Tamale",
    "country": "Ghana",
    "IATA": "TML",
    "lat": 9.55718994140625,
    "lon": -0.8632140159606934,
    "passengers": 0
  },
  {
    "name": "Sunyani Aéroport",
    "city": "Sunyani",
    "country": "Ghana",
    "IATA": "NYI",
    "lat": 7.361830234527588,
    "lon": -2.3287599086761475,
    "passengers": 0
  },
  {
    "name": "Takoradi Aéroport",
    "city": "Takoradi",
    "country": "Ghana",
    "IATA": "TKD",
    "lat": 4.896059989929199,
    "lon": -1.7747600078582764,
    "passengers": 0
  },
  {
    "name": "Port Bouet Aéroport",
    "city": "Abidjan",
    "country": "Cote d'Ivoire",
    "IATA": "ABJ",
    "lat": 5.261390209197998,
    "lon": -3.9262900352478027,
    "passengers": 0
  },
  {
    "name": "Bouaké Aéroport",
    "city": "Bouake",
    "country": "Cote d'Ivoire",
    "IATA": "BYK",
    "lat": 7.738800048828125,
    "lon": -5.073669910430908,
    "passengers": 0
  },
  {
    "name": "Daloa Aéroport",
    "city": "Daloa",
    "country": "Cote d'Ivoire",
    "IATA": "DJO",
    "lat": 6.792809963226318,
    "lon": -6.473189830780029,
    "passengers": 0
  },
  {
    "name": "Korhogo Aéroport",
    "city": "Korhogo",
    "country": "Cote d'Ivoire",
    "IATA": "HGO",
    "lat": 9.38718032837,
    "lon": -5.55666017532,
    "passengers": 0
  },
  {
    "name": "Man Aéroport",
    "city": "Man",
    "country": "Cote d'Ivoire",
    "IATA": "MJC",
    "lat": 7.272069931030273,
    "lon": -7.58735990524292,
    "passengers": 0
  },
  {
    "name": "San Pedro Aéroport",
    "city": "San Pedro",
    "country": "Cote d'Ivoire",
    "IATA": "SPY",
    "lat": 4.746719837188721,
    "lon": -6.660820007324219,
    "passengers": 0
  },
  {
    "name": "Yamoussoukro Aéroport",
    "city": "Yamoussoukro",
    "country": "Cote d'Ivoire",
    "IATA": "ASK",
    "lat": 6.9031701088,
    "lon": -5.36558008194,
    "passengers": 0
  },
  {
    "name": "Nnamdi Azikiwe International Aéroport",
    "city": "Abuja",
    "country": "Nigeria",
    "IATA": "ABV",
    "lat": 9.006790161132812,
    "lon": 7.263169765472412,
    "passengers": 0
  },
  {
    "name": "Akure Aéroport",
    "city": "Akure",
    "country": "Nigeria",
    "IATA": "AKR",
    "lat": 7.246739864349365,
    "lon": 5.3010101318359375,
    "passengers": 0
  },
  {
    "name": "Benin Aéroport",
    "city": "Benin",
    "country": "Nigeria",
    "IATA": "BNI",
    "lat": 6.316979885101318,
    "lon": 5.5995001792907715,
    "passengers": 0
  },
  {
    "name": "Margaret Ekpo International Aéroport",
    "city": "Calabar",
    "country": "Nigeria",
    "IATA": "CBQ",
    "lat": 4.976019859313965,
    "lon": 8.347200393676758,
    "passengers": 0
  },
  {
    "name": "Akanu Ibiam International Aéroport",
    "city": "Enugu",
    "country": "Nigeria",
    "IATA": "ENU",
    "lat": 6.474269866943359,
    "lon": 7.561960220336914,
    "passengers": 0
  },
  {
    "name": "Ibadan Aéroport",
    "city": "Ibadan",
    "country": "Nigeria",
    "IATA": "IBA",
    "lat": 7.362460136413574,
    "lon": 3.97832989692688,
    "passengers": 0
  },
  {
    "name": "Ilorin International Aéroport",
    "city": "Ilorin",
    "country": "Nigeria",
    "IATA": "ILR",
    "lat": 8.440210342407227,
    "lon": 4.493919849395752,
    "passengers": 0
  },
  {
    "name": "Yakubu Gowon Aéroport",
    "city": "Jos",
    "country": "Nigeria",
    "IATA": "JOS",
    "lat": 9.639829635620117,
    "lon": 8.869050025939941,
    "passengers": 0
  },
  {
    "name": "Kaduna Aéroport",
    "city": "Kaduna",
    "country": "Nigeria",
    "IATA": "KAD",
    "lat": 10.696000099182129,
    "lon": 7.320109844207764,
    "passengers": 0
  },
  {
    "name": "Mallam Aminu International Aéroport",
    "city": "Kano",
    "country": "Nigeria",
    "IATA": "KAN",
    "lat": 12.0476,
    "lon": 8.52462,
    "passengers": 0
  },
  {
    "name": "Maiduguri International Aéroport",
    "city": "Maiduguri",
    "country": "Nigeria",
    "IATA": "MIU",
    "lat": 11.855299949645996,
    "lon": 13.080900192260742,
    "passengers": 0
  },
  {
    "name": "Makurdi Aéroport",
    "city": "Makurdi",
    "country": "Nigeria",
    "IATA": "MDI",
    "lat": 7.70388,
    "lon": 8.61394,
    "passengers": 0
  },
  {
    "name": "Murtala Muhammed International Aéroport",
    "city": "Lagos",
    "country": "Nigeria",
    "IATA": "LOS",
    "lat": 6.5773701667785645,
    "lon": 3.321160078048706,
    "passengers": 6360000
  },
  {
    "name": "Minna Aéroport",
    "city": "Minna",
    "country": "Nigeria",
    "IATA": "MXJ",
    "lat": 9.652170181274414,
    "lon": 6.462259769439697,
    "passengers": 0
  },
  {
    "name": "Port Harcourt International Aéroport",
    "city": "Port Hartcourt",
    "country": "Nigeria",
    "IATA": "PHC",
    "lat": 5.0154900550842285,
    "lon": 6.94959020614624,
    "passengers": 0
  },
  {
    "name": "Sadiq Abubakar III International Aéroport",
    "city": "Sokoto",
    "country": "Nigeria",
    "IATA": "SKO",
    "lat": 12.916299819946289,
    "lon": 5.207190036773682,
    "passengers": 0
  },
  {
    "name": "Yola Aéroport",
    "city": "Yola",
    "country": "Nigeria",
    "IATA": "YOL",
    "lat": 9.257550239562988,
    "lon": 12.430399894714355,
    "passengers": 0
  },
  {
    "name": "Zaria Aéroport",
    "city": "Zaria",
    "country": "Nigeria",
    "IATA": "ZAR",
    "lat": 11.1302,
    "lon": 7.68581,
    "passengers": 0
  },
  {
    "name": "Maradi Aéroport",
    "city": "Maradi",
    "country": "Niger",
    "IATA": "MFQ",
    "lat": 13.5024995803833,
    "lon": 7.1267499923706055,
    "passengers": 0
  },
  {
    "name": "Diori Hamani International Aéroport",
    "city": "Niamey",
    "country": "Niger",
    "IATA": "NIM",
    "lat": 13.481499671936035,
    "lon": 2.183609962463379,
    "passengers": 0
  },
  {
    "name": "Tahoua Aéroport",
    "city": "Tahoua",
    "country": "Niger",
    "IATA": "THZ",
    "lat": 14.875699996948242,
    "lon": 5.265359878540039,
    "passengers": 0
  },
  {
    "name": "Mano Dayak International Aéroport",
    "city": "Agadez",
    "country": "Niger",
    "IATA": "AJY",
    "lat": 16.965999603271484,
    "lon": 8.000109672546387,
    "passengers": 0
  },
  {
    "name": "Zinder Aéroport",
    "city": "Zinder",
    "country": "Niger",
    "IATA": "ZND",
    "lat": 13.779000282287598,
    "lon": 8.983759880065918,
    "passengers": 0
  },
  {
    "name": "Monastir Habib Bourguiba International Aéroport",
    "city": "Monastir",
    "country": "Tunisia",
    "IATA": "MIR",
    "lat": 35.75809860229492,
    "lon": 10.75469970703125,
    "passengers": 0
  },
  {
    "name": "Tunis Carthage International Aéroport",
    "city": "Tunis",
    "country": "Tunisia",
    "IATA": "TUN",
    "lat": 36.85100173950195,
    "lon": 10.22719955444336,
    "passengers": 0
  },
  {
    "name": "Gafsa Ksar International Aéroport",
    "city": "Gafsa",
    "country": "Tunisia",
    "IATA": "GAF",
    "lat": 34.422000885009766,
    "lon": 8.822500228881836,
    "passengers": 0
  },
  {
    "name": "Gabès Matmata International Aéroport",
    "city": "Gabes",
    "country": "Tunisia",
    "IATA": "GAE",
    "lat": 33.87689971923828,
    "lon": 10.103300094604492,
    "passengers": 0
  },
  {
    "name": "Djerba Zarzis International Aéroport",
    "city": "Djerba",
    "country": "Tunisia",
    "IATA": "DJE",
    "lat": 33.875,
    "lon": 10.775500297546387,
    "passengers": 0
  },
  {
    "name": "El Borma Aéroport",
    "city": "El Borma",
    "country": "Tunisia",
    "IATA": "EBM",
    "lat": 31.704299926757812,
    "lon": 9.254619598388672,
    "passengers": 0
  },
  {
    "name": "Sfax Thyna International Aéroport",
    "city": "Sfax",
    "country": "Tunisia",
    "IATA": "SFA",
    "lat": 34.71799850463867,
    "lon": 10.690999984741211,
    "passengers": 0
  },
  {
    "name": "Tozeur Nefta International Aéroport",
    "city": "Tozeur",
    "country": "Tunisia",
    "IATA": "TOE",
    "lat": 33.939701080322266,
    "lon": 8.110560417175293,
    "passengers": 0
  },
  {
    "name": "Niamtougou International Aéroport",
    "city": "Niatougou",
    "country": "Togo",
    "IATA": "LRL",
    "lat": 9.767330169677734,
    "lon": 1.091249942779541,
    "passengers": 0
  },
  {
    "name": "Lomé-Tokoin Aéroport",
    "city": "Lome",
    "country": "Togo",
    "IATA": "LFW",
    "lat": 6.165609836578369,
    "lon": 1.2545100450515747,
    "passengers": 0
  },
  {
    "name": "Antwerp International Aéroport (Deurne)",
    "city": "Antwerp",
    "country": "Belgium",
    "IATA": "ANR",
    "lat": 51.1893997192,
    "lon": 4.46027994156,
    "passengers": 0
  },
  {
    "name": "Brussels Aéroport",
    "city": "Brussels",
    "country": "Belgium",
    "IATA": "BRU",
    "lat": 50.901401519800004,
    "lon": 4.48443984985,
    "passengers": 21818418
  },
  {
    "name": "Brussels South Charleroi Aéroport",
    "city": "Charleroi",
    "country": "Belgium",
    "IATA": "CRL",
    "lat": 50.459202,
    "lon": 4.45382,
    "passengers": 7303720
  },
  {
    "name": "Wevelgem Aéroport",
    "city": "Kortrijk-vevelgem",
    "country": "Belgium",
    "IATA": "KJK",
    "lat": 50.817199707,
    "lon": 3.20472002029,
    "passengers": 0
  },
  {
    "name": "Liège Aéroport",
    "city": "Liege",
    "country": "Belgium",
    "IATA": "LGG",
    "lat": 50.63740158081055,
    "lon": 5.443220138549805,
    "passengers": 0
  },
  {
    "name": "Ostend-Bruges International Aéroport",
    "city": "Ostend",
    "country": "Belgium",
    "IATA": "OST",
    "lat": 51.198898315399994,
    "lon": 2.8622200489,
    "passengers": 0
  },
  {
    "name": "Zoersel (Oostmalle) Airfield",
    "city": "Zoersel",
    "country": "Belgium",
    "IATA": "OBL",
    "lat": 51.264702,
    "lon": 4.75333,
    "passengers": 0
  },
  {
    "name": "Altenburg-Nobitz Aéroport",
    "city": "Altenburg",
    "country": "Germany",
    "IATA": "AOC",
    "lat": 50.981945,
    "lon": 12.506389,
    "passengers": 0
  },
  {
    "name": "Riesa-Göhlis Aéroport",
    "city": "Riesa",
    "country": "Germany",
    "IATA": "IES",
    "lat": 51.2936096191,
    "lon": 13.3561105728,
    "passengers": 0
  },
  {
    "name": "Rechlin-Lärz Aéroport",
    "city": "Rechlin-laerz",
    "country": "Germany",
    "IATA": "REB",
    "lat": 53.306388855,
    "lon": 12.7522220612,
    "passengers": 0
  },
  {
    "name": "Schönhagen Aéroport",
    "city": "Schoenhagen",
    "country": "Germany",
    "IATA": "QXH",
    "lat": 52.203609,
    "lon": 13.156389,
    "passengers": 0
  },
  {
    "name": "Barth Aéroport",
    "city": "Barth",
    "country": "Germany",
    "IATA": "BBH",
    "lat": 54.338253,
    "lon": 12.710515,
    "passengers": 0
  },
  {
    "name": "Magdeburg \"City\" Aéroport",
    "city": "Magdeburg",
    "country": "Germany",
    "IATA": "ZMG",
    "lat": 52.073612,
    "lon": 11.626389,
    "passengers": 0
  },
  {
    "name": "Cottbus-Drewitz Aéroport",
    "city": "Cottbus",
    "country": "Germany",
    "IATA": "CBU",
    "lat": 51.889442,
    "lon": 14.531944,
    "passengers": 0
  },
  {
    "name": "Berlin-Schönefeld Aéroport",
    "city": "Berlin",
    "country": "Germany",
    "IATA": "SXF",
    "lat": 52.380001,
    "lon": 13.5225,
    "passengers": 0
  },
  {
    "name": "Dresden Aéroport",
    "city": "Dresden",
    "country": "Germany",
    "IATA": "DRS",
    "lat": 51.1328010559082,
    "lon": 13.767200469970703,
    "passengers": 0
  },
  {
    "name": "Erfurt Aéroport",
    "city": "Erfurt",
    "country": "Germany",
    "IATA": "ERF",
    "lat": 50.979801177978516,
    "lon": 10.958100318908691,
    "passengers": 0
  },
  {
    "name": "Frankfurt am Main Aéroport",
    "city": "Frankfurt",
    "country": "Germany",
    "IATA": "FRA",
    "lat": 50.033333,
    "lon": 8.570556,
    "passengers": 0
  },
  {
    "name": "Münster Osnabrück Aéroport",
    "city": "Munster",
    "country": "Germany",
    "IATA": "FMO",
    "lat": 52.134601593,
    "lon": 7.68483018875,
    "passengers": 0
  },
  {
    "name": "Hamburg Aéroport",
    "city": "Hamburg",
    "country": "Germany",
    "IATA": "HAM",
    "lat": 53.630401611328,
    "lon": 9.9882297515869,
    "passengers": 16224154
  },
  {
    "name": "Berlin-Tempelhof International Aéroport",
    "city": "Berlin",
    "country": "Germany",
    "IATA": "THF",
    "lat": 52.472999572753906,
    "lon": 13.403900146484375,
    "passengers": 0
  },
  {
    "name": "Cologne Bonn Aéroport",
    "city": "Cologne",
    "country": "Germany",
    "IATA": "CGN",
    "lat": 50.8658981323,
    "lon": 7.1427397728,
    "passengers": 11910138
  },
  {
    "name": "Düsseldorf Aéroport",
    "city": "Duesseldorf",
    "country": "Germany",
    "IATA": "DUS",
    "lat": 51.289501,
    "lon": 6.76678,
    "passengers": 23521919
  },
  {
    "name": "Munich Aéroport",
    "city": "Munich",
    "country": "Germany",
    "IATA": "MUC",
    "lat": 48.353802,
    "lon": 11.7861,
    "passengers": 42261309
  },
  {
    "name": "Nuremberg Aéroport",
    "city": "Nuernberg",
    "country": "Germany",
    "IATA": "NUE",
    "lat": 49.498699,
    "lon": 11.078056,
    "passengers": 0
  },
  {
    "name": "Leipzig/Halle Aéroport",
    "city": "Leipzig",
    "country": "Germany",
    "IATA": "LEJ",
    "lat": 51.423889,
    "lon": 12.236389,
    "passengers": 0
  },
  {
    "name": "Saarbrücken Aéroport",
    "city": "Saarbruecken",
    "country": "Germany",
    "IATA": "SCN",
    "lat": 49.214599609400004,
    "lon": 7.10950994492,
    "passengers": 0
  },
  {
    "name": "Stuttgart Aéroport",
    "city": "Stuttgart",
    "country": "Germany",
    "IATA": "STR",
    "lat": 48.689899444599995,
    "lon": 9.22196006775,
    "passengers": 10626430
  },
  {
    "name": "Berlin-Tegel Aéroport",
    "city": "Berlin",
    "country": "Germany",
    "IATA": "TXL",
    "lat": 52.5597,
    "lon": 13.2877,
    "passengers": 0
  },
  {
    "name": "Hannover Aéroport",
    "city": "Hannover",
    "country": "Germany",
    "IATA": "HAJ",
    "lat": 52.461101532,
    "lon": 9.685079574580001,
    "passengers": 0
  },
  {
    "name": "Bremen Aéroport",
    "city": "Bremen",
    "country": "Germany",
    "IATA": "BRE",
    "lat": 53.0475006104,
    "lon": 8.78666973114,
    "passengers": 0
  },
  {
    "name": "Frankfurt-Egelsbach Aéroport",
    "city": "Egelsbach",
    "country": "Germany",
    "IATA": "QEF",
    "lat": 49.959999,
    "lon": 8.645833,
    "passengers": 0
  },
  {
    "name": "Frankfurt-Hahn Aéroport",
    "city": "Hahn",
    "country": "Germany",
    "IATA": "HHN",
    "lat": 49.9487,
    "lon": 7.26389,
    "passengers": 0
  },
  {
    "name": "Mannheim-City Aéroport",
    "city": "Mannheim",
    "country": "Germany",
    "IATA": "MHG",
    "lat": 49.473057,
    "lon": 8.514167,
    "passengers": 0
  },
  {
    "name": "Eisenach-Kindel Aéroport",
    "city": "Eisenach",
    "country": "Germany",
    "IATA": "EIB",
    "lat": 50.991604,
    "lon": 10.47973,
    "passengers": 0
  },
  {
    "name": "Siegerland Aéroport",
    "city": "Siegerland",
    "country": "Germany",
    "IATA": "SGE",
    "lat": 50.707698822021484,
    "lon": 8.082969665527344,
    "passengers": 0
  },
  {
    "name": "Hamburg-Finkenwerder Aéroport",
    "city": "Hamburg",
    "country": "Germany",
    "IATA": "XFW",
    "lat": 53.5352783203125,
    "lon": 9.835556030273438,
    "passengers": 0
  },
  {
    "name": "Kiel-Holtenau Aéroport",
    "city": "Kiel",
    "country": "Germany",
    "IATA": "KEL",
    "lat": 54.37944412231445,
    "lon": 10.145277976989746,
    "passengers": 0
  },
  {
    "name": "Lübeck Blankensee Aéroport",
    "city": "Luebeck",
    "country": "Germany",
    "IATA": "LBC",
    "lat": 53.8054008484,
    "lon": 10.7192001343,
    "passengers": 0
  },
  {
    "name": "Essen Mulheim Aéroport",
    "city": "Essen",
    "country": "Germany",
    "IATA": "ESS",
    "lat": 51.40230178833008,
    "lon": 6.9373297691345215,
    "passengers": 0
  },
  {
    "name": "Bielefeld Aéroport",
    "city": "Bielefeld",
    "country": "Germany",
    "IATA": "BFE",
    "lat": 51.964722,
    "lon": 8.544444,
    "passengers": 0
  },
  {
    "name": "Mönchengladbach Aéroport",
    "city": "Moenchengladbach",
    "country": "Germany",
    "IATA": "MGL",
    "lat": 51.230278,
    "lon": 6.504444,
    "passengers": 0
  },
  {
    "name": "Paderborn Lippstadt Aéroport",
    "city": "Paderborn",
    "country": "Germany",
    "IATA": "PAD",
    "lat": 51.614101409899995,
    "lon": 8.616319656369999,
    "passengers": 0
  },
  {
    "name": "Dortmund Aéroport",
    "city": "Dortmund",
    "country": "Germany",
    "IATA": "DTM",
    "lat": 51.51829910279999,
    "lon": 7.61223983765,
    "passengers": 0
  },
  {
    "name": "Augsburg Aéroport",
    "city": "Augsburg",
    "country": "Germany",
    "IATA": "AGB",
    "lat": 48.425278,
    "lon": 10.931667,
    "passengers": 0
  },
  {
    "name": "Oberpfaffenhofen Aéroport",
    "city": "Oberpfaffenhofen",
    "country": "Germany",
    "IATA": "OBF",
    "lat": 48.081402,
    "lon": 11.2831,
    "passengers": 0
  },
  {
    "name": "Straubing Aéroport",
    "city": "Straubing",
    "country": "Germany",
    "IATA": "RBM",
    "lat": 48.90083312988281,
    "lon": 12.516667366027832,
    "passengers": 0
  },
  {
    "name": "Friedrichshafen Aéroport",
    "city": "Friedrichshafen",
    "country": "Germany",
    "IATA": "FDH",
    "lat": 47.671298980699994,
    "lon": 9.51148986816,
    "passengers": 0
  },
  {
    "name": "Schwerin Parchim Aéroport",
    "city": "Parchim",
    "country": "Germany",
    "IATA": "SZW",
    "lat": 53.426998,
    "lon": 11.7834,
    "passengers": 0
  },
  {
    "name": "Bayreuth Aéroport",
    "city": "Bayreuth",
    "country": "Germany",
    "IATA": "BYU",
    "lat": 49.985001,
    "lon": 11.64,
    "passengers": 0
  },
  {
    "name": "Burg Feuerstein Aéroport",
    "city": "Burg Feuerstein",
    "country": "Germany",
    "IATA": "URD",
    "lat": 49.794166564941,
    "lon": 11.133610725403,
    "passengers": 0
  },
  {
    "name": "Hof-Plauen Aéroport",
    "city": "Hof",
    "country": "Germany",
    "IATA": "HOQ",
    "lat": 50.288612365722656,
    "lon": 11.856389045715332,
    "passengers": 0
  },
  {
    "name": "Zweibrücken Aéroport",
    "city": "Zweibruecken",
    "country": "Germany",
    "IATA": "ZQW",
    "lat": 49.2094,
    "lon": 7.40056,
    "passengers": 0
  },
  {
    "name": "Donaueschingen-Villingen Aéroport",
    "city": "Donaueschingen",
    "country": "Germany",
    "IATA": "ZQL",
    "lat": 47.97333145139999,
    "lon": 8.52222156525,
    "passengers": 0
  },
  {
    "name": "Braunschweig-Wolfsburg Aéroport",
    "city": "Braunschweig",
    "country": "Germany",
    "IATA": "BWE",
    "lat": 52.319199,
    "lon": 10.5561,
    "passengers": 0
  },
  {
    "name": "Kassel-Calden Aéroport",
    "city": "Kassel",
    "country": "Germany",
    "IATA": "KSF",
    "lat": 51.417273,
    "lon": 9.384967,
    "passengers": 0
  },
  {
    "name": "Bremerhaven Aéroport",
    "city": "Bremerhaven",
    "country": "Germany",
    "IATA": "BRV",
    "lat": 53.506943,
    "lon": 8.572778,
    "passengers": 0
  },
  {
    "name": "Emden Aéroport",
    "city": "Emden",
    "country": "Germany",
    "IATA": "EME",
    "lat": 53.391109,
    "lon": 7.2275,
    "passengers": 0
  },
  {
    "name": "Wilhelmshaven-Mariensiel Aéroport",
    "city": "Wilhelmshaven",
    "country": "Germany",
    "IATA": "WVN",
    "lat": 53.502220153808594,
    "lon": 8.05222225189209,
    "passengers": 0
  },
  {
    "name": "Borkum Aéroport",
    "city": "Borkum",
    "country": "Germany",
    "IATA": "BMK",
    "lat": 53.59639,
    "lon": 6.709167,
    "passengers": 0
  },
  {
    "name": "Norderney Aéroport",
    "city": "Norderney",
    "country": "Germany",
    "IATA": "NRD",
    "lat": 53.70694351196289,
    "lon": 7.230000019073486,
    "passengers": 0
  },
  {
    "name": "Flensburg-Schäferhaus Aéroport",
    "city": "Flensburg",
    "country": "Germany",
    "IATA": "FLF",
    "lat": 54.77333450317383,
    "lon": 9.378889083862305,
    "passengers": 0
  },
  {
    "name": "Westerland Sylt Aéroport",
    "city": "Westerland",
    "country": "Germany",
    "IATA": "GWT",
    "lat": 54.9132003784,
    "lon": 8.34047031403,
    "passengers": 0
  },
  {
    "name": "Kärdla Aéroport",
    "city": "Kardla",
    "country": "Estonia",
    "IATA": "KDL",
    "lat": 58.99079895019531,
    "lon": 22.830699920654297,
    "passengers": 0
  },
  {
    "name": "Kuressaare Aéroport",
    "city": "Kuressaare",
    "country": "Estonia",
    "IATA": "URE",
    "lat": 58.22990036010742,
    "lon": 22.50950050354004,
    "passengers": 0
  },
  {
    "name": "Pärnu Aéroport",
    "city": "Parnu",
    "country": "Estonia",
    "IATA": "EPU",
    "lat": 58.41899871826172,
    "lon": 24.47279930114746,
    "passengers": 0
  },
  {
    "name": "Lennart Meri Tallinn Aéroport",
    "city": "Tallinn-ulemiste International",
    "country": "Estonia",
    "IATA": "TLL",
    "lat": 59.41329956049999,
    "lon": 24.832799911499997,
    "passengers": 0
  },
  {
    "name": "Tartu Aéroport",
    "city": "Tartu",
    "country": "Estonia",
    "IATA": "TAY",
    "lat": 58.3074989319,
    "lon": 26.690399169900004,
    "passengers": 0
  },
  {
    "name": "Enontekio Aéroport",
    "city": "Enontekio",
    "country": "Finland",
    "IATA": "ENF",
    "lat": 68.362602233887,
    "lon": 23.424299240112,
    "passengers": 0
  },
  {
    "name": "Halli Aéroport",
    "city": "Halli",
    "country": "Finland",
    "IATA": "KEV",
    "lat": 61.856039,
    "lon": 24.786686,
    "passengers": 0
  },
  {
    "name": "Helsinki Malmi Aéroport",
    "city": "Helsinki",
    "country": "Finland",
    "IATA": "HEM",
    "lat": 60.254600524902344,
    "lon": 25.042800903320312,
    "passengers": 0
  },
  {
    "name": "Helsinki Vantaa Aéroport",
    "city": "Helsinki",
    "country": "Finland",
    "IATA": "HEL",
    "lat": 60.317199707031,
    "lon": 24.963300704956,
    "passengers": 0
  },
  {
    "name": "Hyvinkää Airfield",
    "city": "Hyvinkaa",
    "country": "Finland",
    "IATA": "HYV",
    "lat": 60.6543998718,
    "lon": 24.8810997009,
    "passengers": 0
  },
  {
    "name": "Kitee Aéroport",
    "city": "Kitee",
    "country": "Finland",
    "IATA": "KTQ",
    "lat": 62.1661,
    "lon": 30.073601,
    "passengers": 0
  },
  {
    "name": "Ivalo Aéroport",
    "city": "Ivalo",
    "country": "Finland",
    "IATA": "IVL",
    "lat": 68.607299804688,
    "lon": 27.405300140381,
    "passengers": 0
  },
  {
    "name": "Joensuu Aéroport",
    "city": "Joensuu",
    "country": "Finland",
    "IATA": "JOE",
    "lat": 62.662899017334,
    "lon": 29.607500076294,
    "passengers": 0
  },
  {
    "name": "Jyvaskyla Aéroport",
    "city": "Jyvaskyla",
    "country": "Finland",
    "IATA": "JYV",
    "lat": 62.399501800537,
    "lon": 25.678300857544,
    "passengers": 0
  },
  {
    "name": "Kauhava Aéroport",
    "city": "Kauhava",
    "country": "Finland",
    "IATA": "KAU",
    "lat": 63.127102,
    "lon": 23.051399,
    "passengers": 0
  },
  {
    "name": "Kemi-Tornio Aéroport",
    "city": "Kemi",
    "country": "Finland",
    "IATA": "KEM",
    "lat": 65.778701782227,
    "lon": 24.582099914551,
    "passengers": 0
  },
  {
    "name": "Kajaani Aéroport",
    "city": "Kajaani",
    "country": "Finland",
    "IATA": "KAJ",
    "lat": 64.285499572754,
    "lon": 27.692399978638,
    "passengers": 0
  },
  {
    "name": "Kauhajoki Aéroport",
    "city": "Kauhajoki",
    "country": "Finland",
    "IATA": "KHJ",
    "lat": 62.4625015259,
    "lon": 22.3931007385,
    "passengers": 0
  },
  {
    "name": "Kokkola-Pietarsaari Aéroport",
    "city": "Kruunupyy",
    "country": "Finland",
    "IATA": "KOK",
    "lat": 63.721199035645,
    "lon": 23.143100738525,
    "passengers": 0
  },
  {
    "name": "Kuusamo Aéroport",
    "city": "Kuusamo",
    "country": "Finland",
    "IATA": "KAO",
    "lat": 65.987602233887,
    "lon": 29.239400863647,
    "passengers": 0
  },
  {
    "name": "Kittilä Aéroport",
    "city": "Kittila",
    "country": "Finland",
    "IATA": "KTT",
    "lat": 67.700996398926,
    "lon": 24.846799850464,
    "passengers": 0
  },
  {
    "name": "Kuopio Aéroport",
    "city": "Kuopio",
    "country": "Finland",
    "IATA": "KUO",
    "lat": 63.007099151611,
    "lon": 27.797800064087,
    "passengers": 0
  },
  {
    "name": "Lahti Vesivehmaa Aéroport",
    "city": "Vesivehmaa",
    "country": "Finland",
    "IATA": "QLF",
    "lat": 61.144199,
    "lon": 25.693501,
    "passengers": 0
  },
  {
    "name": "Lappeenranta Aéroport",
    "city": "Lappeenranta",
    "country": "Finland",
    "IATA": "LPP",
    "lat": 61.044601,
    "lon": 28.144743,
    "passengers": 0
  },
  {
    "name": "Mariehamn Aéroport",
    "city": "Mariehamn",
    "country": "Finland",
    "IATA": "MHQ",
    "lat": 60.122200012207,
    "lon": 19.898199081421,
    "passengers": 0
  },
  {
    "name": "Mikkeli Aéroport",
    "city": "Mikkeli",
    "country": "Finland",
    "IATA": "MIK",
    "lat": 61.6866,
    "lon": 27.201799,
    "passengers": 0
  },
  {
    "name": "Oulu Aéroport",
    "city": "Oulu",
    "country": "Finland",
    "IATA": "OUL",
    "lat": 64.930099487305,
    "lon": 25.354600906372,
    "passengers": 0
  },
  {
    "name": "Pori Aéroport",
    "city": "Pori",
    "country": "Finland",
    "IATA": "POR",
    "lat": 61.461700439453,
    "lon": 21.799999237061,
    "passengers": 0
  },
  {
    "name": "Rovaniemi Aéroport",
    "city": "Rovaniemi",
    "country": "Finland",
    "IATA": "RVN",
    "lat": 66.564796447754,
    "lon": 25.830400466919,
    "passengers": 0
  },
  {
    "name": "Savonlinna Aéroport",
    "city": "Savonlinna",
    "country": "Finland",
    "IATA": "SVL",
    "lat": 61.943099975586,
    "lon": 28.945100784302,
    "passengers": 0
  },
  {
    "name": "Sodankyla Aéroport",
    "city": "Sodankyla",
    "country": "Finland",
    "IATA": "SOT",
    "lat": 67.3949966431,
    "lon": 26.6191005707,
    "passengers": 0
  },
  {
    "name": "Tampere-Pirkkala Aéroport",
    "city": "Tampere",
    "country": "Finland",
    "IATA": "TMP",
    "lat": 61.414100646973,
    "lon": 23.604400634766,
    "passengers": 0
  },
  {
    "name": "Turku Aéroport",
    "city": "Turku",
    "country": "Finland",
    "IATA": "TKU",
    "lat": 60.514099121094,
    "lon": 22.262800216675,
    "passengers": 0
  },
  {
    "name": "Utti Air Base",
    "city": "Utti",
    "country": "Finland",
    "IATA": "UTI",
    "lat": 60.89640045166,
    "lon": 26.938400268555,
    "passengers": 0
  },
  {
    "name": "Vaasa Aéroport",
    "city": "Vaasa",
    "country": "Finland",
    "IATA": "VAA",
    "lat": 63.050701141357,
    "lon": 21.762199401855,
    "passengers": 0
  },
  {
    "name": "Varkaus Aéroport",
    "city": "Varkaus",
    "country": "Finland",
    "IATA": "VRK",
    "lat": 62.171100616455,
    "lon": 27.868600845337,
    "passengers": 0
  },
  {
    "name": "Ylivieska Airfield",
    "city": "Ylivieska-raudaskyla",
    "country": "Finland",
    "IATA": "YLI",
    "lat": 64.0547222,
    "lon": 24.7252778,
    "passengers": 0
  },
  {
    "name": "Belfast International Aéroport",
    "city": "Belfast",
    "country": "United Kingdom",
    "IATA": "BFS",
    "lat": 54.6575012207,
    "lon": -6.2158298492399995,
    "passengers": 5147546
  },
  {
    "name": "St Angelo Aéroport",
    "city": "Enniskillen",
    "country": "United Kingdom",
    "IATA": "ENK",
    "lat": 54.39889907836914,
    "lon": -7.651669979095459,
    "passengers": 0
  },
  {
    "name": "George Best Belfast City Aéroport",
    "city": "Belfast",
    "country": "United Kingdom",
    "IATA": "BHD",
    "lat": 54.618099212646484,
    "lon": -5.872499942779541,
    "passengers": 0
  },
  {
    "name": "City of Derry Aéroport",
    "city": "Londonderry",
    "country": "United Kingdom",
    "IATA": "LDY",
    "lat": 55.04280090332031,
    "lon": -7.161109924316406,
    "passengers": 0
  },
  {
    "name": "Birmingham International Aéroport",
    "city": "Birmingham",
    "country": "United Kingdom",
    "IATA": "BHX",
    "lat": 52.453899383499994,
    "lon": -1.74802994728,
    "passengers": 0
  },
  {
    "name": "Coventry Aéroport",
    "city": "Coventry",
    "country": "United Kingdom",
    "IATA": "CVT",
    "lat": 52.3697013855,
    "lon": -1.4797199964499999,
    "passengers": 0
  },
  {
    "name": "Gloucestershire Aéroport",
    "city": "Golouchestershire",
    "country": "United Kingdom",
    "IATA": "GLO",
    "lat": 51.89419937133789,
    "lon": -2.167220115661621,
    "passengers": 0
  },
  {
    "name": "Cotswold Aéroport",
    "city": "Pailton",
    "country": "United Kingdom",
    "IATA": "GBA",
    "lat": 51.668095,
    "lon": -2.05694,
    "passengers": 0
  },
  {
    "name": "Manchester Aéroport",
    "city": "Manchester",
    "country": "United Kingdom",
    "IATA": "MAN",
    "lat": 53.35369873046875,
    "lon": -2.2749500274658203,
    "passengers": 25637054
  },
  {
    "name": "Newquay Cornwall Aéroport",
    "city": "Newquai",
    "country": "United Kingdom",
    "IATA": "NQY",
    "lat": 50.44060134887695,
    "lon": -4.995409965515137,
    "passengers": 0
  },
  {
    "name": "RAF Lyneham",
    "city": "Lyneham",
    "country": "United Kingdom",
    "IATA": "LYE",
    "lat": 51.5051,
    "lon": -1.99343,
    "passengers": 0
  },
  {
    "name": "RNAS Yeovilton",
    "city": "Yeovilton",
    "country": "United Kingdom",
    "IATA": "YEO",
    "lat": 51.0093994140625,
    "lon": -2.638819932937622,
    "passengers": 0
  },
  {
    "name": "Haverfordwest Aéroport",
    "city": "Haverfordwest",
    "country": "United Kingdom",
    "IATA": "HAW",
    "lat": 51.833099365234375,
    "lon": -4.9611101150512695,
    "passengers": 0
  },
  {
    "name": "Cardiff International Aéroport",
    "city": "Cardiff",
    "country": "United Kingdom",
    "IATA": "CWL",
    "lat": 51.39670181274414,
    "lon": -3.343329906463623,
    "passengers": 0
  },
  {
    "name": "Swansea Aéroport",
    "city": "Swansea",
    "country": "United Kingdom",
    "IATA": "SWS",
    "lat": 51.60530090332031,
    "lon": -4.0678300857543945,
    "passengers": 0
  },
  {
    "name": "Bristol Aéroport",
    "city": "Bristol",
    "country": "United Kingdom",
    "IATA": "BRS",
    "lat": 51.382702,
    "lon": -2.71909,
    "passengers": 7610780
  },
  {
    "name": "Liverpool John Lennon Aéroport",
    "city": "Liverpool",
    "country": "United Kingdom",
    "IATA": "LPL",
    "lat": 53.33359909057617,
    "lon": -2.849720001220703,
    "passengers": 4778939
  },
  {
    "name": "London Luton Aéroport",
    "city": "London",
    "country": "United Kingdom",
    "IATA": "LTN",
    "lat": 51.874698638916016,
    "lon": -0.36833301186561584,
    "passengers": 14645619
  },
  {
    "name": "Plymouth City Aéroport",
    "city": "Plymouth",
    "country": "United Kingdom",
    "IATA": "PLH",
    "lat": 50.422798,
    "lon": -4.10583,
    "passengers": 0
  },
  {
    "name": "Bournemouth Aéroport",
    "city": "Bournemouth",
    "country": "United Kingdom",
    "IATA": "BOH",
    "lat": 50.779998779296875,
    "lon": -1.8424999713897705,
    "passengers": 0
  },
  {
    "name": "Southampton Aéroport",
    "city": "Southampton",
    "country": "United Kingdom",
    "IATA": "SOU",
    "lat": 50.95029830932617,
    "lon": -1.3567999601364136,
    "passengers": 0
  },
  {
    "name": "Lasham Aéroport",
    "city": "Lasham",
    "country": "United Kingdom",
    "IATA": "QLA",
    "lat": 51.187198638916016,
    "lon": -1.0334999561309814,
    "passengers": 0
  },
  {
    "name": "Alderney Aéroport",
    "city": "Alderney",
    "country": "Guernsey",
    "IATA": "ACI",
    "lat": 49.706104,
    "lon": -2.21472,
    "passengers": 0
  },
  {
    "name": "Guernsey Aéroport",
    "city": "Guernsey",
    "country": "Guernsey",
    "IATA": "GCI",
    "lat": 49.435001373291016,
    "lon": -2.6019699573516846,
    "passengers": 0
  },
  {
    "name": "Jersey Aéroport",
    "city": "Jersey",
    "country": "Jersey",
    "IATA": "JER",
    "lat": 49.20790100097656,
    "lon": -2.195509910583496,
    "passengers": 0
  },
  {
    "name": "Shoreham Aéroport",
    "city": "Shoreham By Sea",
    "country": "United Kingdom",
    "IATA": "ESH",
    "lat": 50.835602,
    "lon": -0.297222,
    "passengers": 0
  },
  {
    "name": "London Biggin Hill Aéroport",
    "city": "Biggin Hill",
    "country": "United Kingdom",
    "IATA": "BQH",
    "lat": 51.33079910279999,
    "lon": 0.0324999988079,
    "passengers": 0
  },
  {
    "name": "London Gatwick Aéroport",
    "city": "London",
    "country": "United Kingdom",
    "IATA": "LGW",
    "lat": 51.148102,
    "lon": -0.190278,
    "passengers": 43119628
  },
  {
    "name": "London City Aéroport",
    "city": "London",
    "country": "United Kingdom",
    "IATA": "LCY",
    "lat": 51.505299,
    "lon": 0.055278,
    "passengers": 0
  },
  {
    "name": "Farnborough Aéroport",
    "city": "Farnborough",
    "country": "United Kingdom",
    "IATA": "FAB",
    "lat": 51.2757987976,
    "lon": -0.776332974434,
    "passengers": 0
  },
  {
    "name": "Blackbushe Aéroport",
    "city": "Blackbushe",
    "country": "United Kingdom",
    "IATA": "BBS",
    "lat": 51.32389831542969,
    "lon": -0.8475000262260437,
    "passengers": 0
  },
  {
    "name": "London Heathrow Aéroport",
    "city": "London",
    "country": "United Kingdom",
    "IATA": "LHR",
    "lat": 51.4706,
    "lon": -0.461941,
    "passengers": 75711130
  },
  {
    "name": "Southend Aéroport",
    "city": "Southend",
    "country": "United Kingdom",
    "IATA": "SEN",
    "lat": 51.5713996887207,
    "lon": 0.6955559849739075,
    "passengers": 0
  },
  {
    "name": "Lydd Aéroport",
    "city": "Lydd",
    "country": "United Kingdom",
    "IATA": "LYX",
    "lat": 50.95610046386719,
    "lon": 0.9391670227050781,
    "passengers": 0
  },
  {
    "name": "Kent International Aéroport",
    "city": "Manston",
    "country": "United Kingdom",
    "IATA": "MSE",
    "lat": 51.342201,
    "lon": 1.34611,
    "passengers": 0
  },
  {
    "name": "Carlisle Aéroport",
    "city": "Carlisle",
    "country": "United Kingdom",
    "IATA": "CAX",
    "lat": 54.9375,
    "lon": -2.8091700077056885,
    "passengers": 0
  },
  {
    "name": "Blackpool International Aéroport",
    "city": "Blackpool",
    "country": "United Kingdom",
    "IATA": "BLK",
    "lat": 53.77170181274414,
    "lon": -3.0286099910736084,
    "passengers": 0
  },
  {
    "name": "Humberside Aéroport",
    "city": "Humberside",
    "country": "United Kingdom",
    "IATA": "HUY",
    "lat": 53.57440185546875,
    "lon": -0.350832998752594,
    "passengers": 0
  },
  {
    "name": "Barrow Walney Island Aéroport",
    "city": "Barrow Island",
    "country": "United Kingdom",
    "IATA": "BWF",
    "lat": 54.1286111,
    "lon": -3.2675,
    "passengers": 0
  },
  {
    "name": "Leeds Bradford Aéroport",
    "city": "Leeds",
    "country": "United Kingdom",
    "IATA": "LBA",
    "lat": 53.86589813232422,
    "lon": -1.6605700254440308,
    "passengers": 0
  },
  {
    "name": "Warton Aéroport",
    "city": "Warton",
    "country": "United Kingdom",
    "IATA": "WRT",
    "lat": 53.745098,
    "lon": -2.88306,
    "passengers": 0
  },
  {
    "name": "Hawarden Aéroport",
    "city": "Hawarden",
    "country": "United Kingdom",
    "IATA": "CEG",
    "lat": 53.1781005859375,
    "lon": -2.9777801036834717,
    "passengers": 0
  },
  {
    "name": "Isle of Man Aéroport",
    "city": "Isle Of Man",
    "country": "Isle of Man",
    "IATA": "IOM",
    "lat": 54.08330154418945,
    "lon": -4.623889923095703,
    "passengers": 0
  },
  {
    "name": "Newcastle Aéroport",
    "city": "Newcastle",
    "country": "United Kingdom",
    "IATA": "NCL",
    "lat": 55.037498474121094,
    "lon": -1.6916699409484863,
    "passengers": 4807906
  },
  {
    "name": "Durham Tees Valley Aéroport",
    "city": "Teesside",
    "country": "United Kingdom",
    "IATA": "MME",
    "lat": 54.50920104980469,
    "lon": -1.4294099807739258,
    "passengers": 0
  },
  {
    "name": "East Midlands Aéroport",
    "city": "East Midlands",
    "country": "United Kingdom",
    "IATA": "EMA",
    "lat": 52.8311004639,
    "lon": -1.32806003094,
    "passengers": 4653818
  },
  {
    "name": "Kirkwall Aéroport",
    "city": "Kirkwall",
    "country": "United Kingdom",
    "IATA": "KOI",
    "lat": 58.957801818847656,
    "lon": -2.9049999713897705,
    "passengers": 0
  },
  {
    "name": "Sumburgh Aéroport",
    "city": "Sumburgh",
    "country": "United Kingdom",
    "IATA": "LSI",
    "lat": 59.87889862060547,
    "lon": -1.2955600023269653,
    "passengers": 0
  },
  {
    "name": "Wick Aéroport",
    "city": "Wick",
    "country": "United Kingdom",
    "IATA": "WIC",
    "lat": 58.458900451660156,
    "lon": -3.09306001663208,
    "passengers": 43119628
  },
  {
    "name": "Aberdeen Dyce Aéroport",
    "city": "Aberdeen",
    "country": "United Kingdom",
    "IATA": "ABZ",
    "lat": 57.201900482177734,
    "lon": -2.197779893875122,
    "passengers": 0
  },
  {
    "name": "Inverness Aéroport",
    "city": "Inverness",
    "country": "United Kingdom",
    "IATA": "INV",
    "lat": 57.54249954223633,
    "lon": -4.047500133514404,
    "passengers": 0
  },
  {
    "name": "Glasgow International Aéroport",
    "city": "Glasgow",
    "country": "United Kingdom",
    "IATA": "GLA",
    "lat": 55.8718986511,
    "lon": -4.43306016922,
    "passengers": 9327193
  },
  {
    "name": "Edinburgh Aéroport",
    "city": "Edinburgh",
    "country": "United Kingdom",
    "IATA": "EDI",
    "lat": 55.95000076293945,
    "lon": -3.372499942779541,
    "passengers": 12348425
  },
  {
    "name": "Islay Aéroport",
    "city": "Islay",
    "country": "United Kingdom",
    "IATA": "ILY",
    "lat": 55.68190002441406,
    "lon": -6.256669998168945,
    "passengers": 0
  },
  {
    "name": "Glasgow Prestwick Aéroport",
    "city": "Prestwick",
    "country": "United Kingdom",
    "IATA": "PIK",
    "lat": 55.5093994140625,
    "lon": -4.586669921875,
    "passengers": 0
  },
  {
    "name": "Benbecula Aéroport",
    "city": "Benbecula",
    "country": "United Kingdom",
    "IATA": "BEB",
    "lat": 57.48109817504883,
    "lon": -7.3627800941467285,
    "passengers": 0
  },
  {
    "name": "Scatsta Aéroport",
    "city": "Scatsta",
    "country": "United Kingdom",
    "IATA": "SCS",
    "lat": 60.43280029296875,
    "lon": -1.2961100339889526,
    "passengers": 0
  },
  {
    "name": "Dundee Aéroport",
    "city": "Dundee",
    "country": "United Kingdom",
    "IATA": "DND",
    "lat": 56.45249938964844,
    "lon": -3.025830030441284,
    "passengers": 0
  },
  {
    "name": "Stornoway Aéroport",
    "city": "Stornoway",
    "country": "United Kingdom",
    "IATA": "SYY",
    "lat": 58.215599060058594,
    "lon": -6.331110000610352,
    "passengers": 0
  },
  {
    "name": "Tiree Aéroport",
    "city": "Tiree",
    "country": "United Kingdom",
    "IATA": "TRE",
    "lat": 56.49919891357422,
    "lon": -6.869170188903809,
    "passengers": 0
  },
  {
    "name": "RAF Leuchars",
    "city": "Leuchars",
    "country": "United Kingdom",
    "IATA": "ADX",
    "lat": 56.37289810180664,
    "lon": -2.8684399127960205,
    "passengers": 0
  },
  {
    "name": "RAF Lossiemouth",
    "city": "Lossiemouth",
    "country": "United Kingdom",
    "IATA": "LMO",
    "lat": 57.7052001953125,
    "lon": -3.339169979095459,
    "passengers": 0
  },
  {
    "name": "Cambridge Aéroport",
    "city": "Cambridge",
    "country": "United Kingdom",
    "IATA": "CBG",
    "lat": 52.205002,
    "lon": 0.175,
    "passengers": 0
  },
  {
    "name": "Norwich International Aéroport",
    "city": "Norwich",
    "country": "United Kingdom",
    "IATA": "NWI",
    "lat": 52.6758003235,
    "lon": 1.28278005123,
    "passengers": 0
  },
  {
    "name": "London Stansted Aéroport",
    "city": "London",
    "country": "United Kingdom",
    "IATA": "STN",
    "lat": 51.8849983215,
    "lon": 0.234999999404,
    "passengers": 24320071
  },
  {
    "name": "Exeter International Aéroport",
    "city": "Exeter",
    "country": "United Kingdom",
    "IATA": "EXT",
    "lat": 50.73440170288086,
    "lon": -3.4138898849487305,
    "passengers": 0
  },
  {
    "name": "Bristol Filton Aéroport",
    "city": "Bristol",
    "country": "United Kingdom",
    "IATA": "FZO",
    "lat": 51.5194015503,
    "lon": -2.59083008766,
    "passengers": 0
  },
  {
    "name": "Oxford (Kidlington) Aéroport",
    "city": "Oxford",
    "country": "United Kingdom",
    "IATA": "OXF",
    "lat": 51.8368988037,
    "lon": -1.32000005245,
    "passengers": 0
  },
  {
    "name": "RAF Benson",
    "city": "Benson",
    "country": "United Kingdom",
    "IATA": "BEX",
    "lat": 51.616401672399995,
    "lon": -1.09582996368,
    "passengers": 0
  },
  {
    "name": "RAF Lakenheath",
    "city": "Lakenheath",
    "country": "United Kingdom",
    "IATA": "LKZ",
    "lat": 52.409301757799994,
    "lon": 0.56099998951,
    "passengers": 0
  },
  {
    "name": "RAF Mildenhall",
    "city": "Mildenhall",
    "country": "United Kingdom",
    "IATA": "MHZ",
    "lat": 52.361900329589844,
    "lon": 0.48640599846839905,
    "passengers": 0
  },
  {
    "name": "RAF Wyton",
    "city": "Wyton",
    "country": "United Kingdom",
    "IATA": "QUY",
    "lat": 52.3572006226,
    "lon": -0.107832998037,
    "passengers": 0
  },
  {
    "name": "RAF Fairford",
    "city": "Fairford",
    "country": "United Kingdom",
    "IATA": "FFD",
    "lat": 51.6822013855,
    "lon": -1.7900300025900002,
    "passengers": 0
  },
  {
    "name": "RAF Brize Norton",
    "city": "Brize Norton",
    "country": "United Kingdom",
    "IATA": "BZZ",
    "lat": 51.75,
    "lon": -1.58362,
    "passengers": 0
  },
  {
    "name": "RAF Odiham",
    "city": "Odiham",
    "country": "United Kingdom",
    "IATA": "ODH",
    "lat": 51.2341003418,
    "lon": -0.94282501936,
    "passengers": 0
  },
  {
    "name": "RAF Northolt",
    "city": "Northolt",
    "country": "United Kingdom",
    "IATA": "NHT",
    "lat": 51.553001403799996,
    "lon": -0.418166995049,
    "passengers": 0
  },
  {
    "name": "RAF Coningsby",
    "city": "Coningsby",
    "country": "United Kingdom",
    "IATA": "QCY",
    "lat": 53.0929985046,
    "lon": -0.166014000773,
    "passengers": 0
  },
  {
    "name": "RAF Honington",
    "city": "Honington",
    "country": "United Kingdom",
    "IATA": "BEQ",
    "lat": 52.34260177612305,
    "lon": 0.7729390263557434,
    "passengers": 0
  },
  {
    "name": "RAF Scampton",
    "city": "Scampton",
    "country": "United Kingdom",
    "IATA": "SQZ",
    "lat": 53.307800293,
    "lon": -0.550832986832,
    "passengers": 0
  },
  {
    "name": "RAF Linton-On-Ouse",
    "city": "Linton-on-ouse",
    "country": "United Kingdom",
    "IATA": "HRT",
    "lat": 54.0489006042,
    "lon": -1.2527500391,
    "passengers": 0
  },
  {
    "name": "RAF Waddington",
    "city": "Waddington",
    "country": "United Kingdom",
    "IATA": "WTN",
    "lat": 53.1661987305,
    "lon": -0.523810982704,
    "passengers": 0
  },
  {
    "name": "RAF Marham",
    "city": "Marham",
    "country": "United Kingdom",
    "IATA": "KNF",
    "lat": 52.648395,
    "lon": 0.550692,
    "passengers": 0
  },
  {
    "name": "Mount Pleasant Aéroport",
    "city": "Mount Pleasant",
    "country": "Falkland Islands",
    "IATA": "MPN",
    "lat": -51.82279968261719,
    "lon": -58.447200775146484,
    "passengers": 0
  },
  {
    "name": "Amsterdam Aéroport Schiphol",
    "city": "Amsterdam",
    "country": "Netherlands",
    "IATA": "AMS",
    "lat": 52.308601,
    "lon": 4.76389,
    "passengers": 63625664
  },
  {
    "name": "Maastricht Aachen Aéroport",
    "city": "Maastricht",
    "country": "Netherlands",
    "IATA": "MST",
    "lat": 50.9117012024,
    "lon": 5.77014017105,
    "passengers": 0
  },
  {
    "name": "Eindhoven Aéroport",
    "city": "Eindhoven",
    "country": "Netherlands",
    "IATA": "EIN",
    "lat": 51.4500999451,
    "lon": 5.37452983856,
    "passengers": 4736205
  },
  {
    "name": "Eelde Aéroport",
    "city": "Groningen",
    "country": "Netherlands",
    "IATA": "GRQ",
    "lat": 53.1197013855,
    "lon": 6.57944011688,
    "passengers": 0
  },
  {
    "name": "Gilze Rijen Air Base",
    "city": "Gilze-rijen",
    "country": "Netherlands",
    "IATA": "GLZ",
    "lat": 51.56740188598633,
    "lon": 4.931829929351807,
    "passengers": 0
  },
  {
    "name": "De Kooy Aéroport",
    "city": "De Kooy",
    "country": "Netherlands",
    "IATA": "DHR",
    "lat": 52.92340087890625,
    "lon": 4.780620098114014,
    "passengers": 0
  },
  {
    "name": "Lelystad Aéroport",
    "city": "Lelystad",
    "country": "Netherlands",
    "IATA": "LEY",
    "lat": 52.4603,
    "lon": 5.52722,
    "passengers": 0
  },
  {
    "name": "Leeuwarden Air Base",
    "city": "Leeuwarden",
    "country": "Netherlands",
    "IATA": "LWR",
    "lat": 53.228599548339844,
    "lon": 5.760560035705566,
    "passengers": 0
  },
  {
    "name": "Rotterdam The Hague Aéroport",
    "city": "Rotterdam",
    "country": "Netherlands",
    "IATA": "RTM",
    "lat": 51.956902,
    "lon": 4.43722,
    "passengers": 0
  },
  {
    "name": "Soesterberg Air Base",
    "city": "Soesterberg",
    "country": "Netherlands",
    "IATA": "UTC",
    "lat": 52.1273002625,
    "lon": 5.27618980408,
    "passengers": 0
  },
  {
    "name": "Twente Aéroport",
    "city": "Enschede",
    "country": "Netherlands",
    "IATA": "ENS",
    "lat": 52.275833,
    "lon": 6.889167,
    "passengers": 0
  },
  {
    "name": "Valkenburg Naval Air Base",
    "city": "Valkenburg",
    "country": "Netherlands",
    "IATA": "LID",
    "lat": 52.166099548300004,
    "lon": 4.41794013977,
    "passengers": 0
  },
  {
    "name": "Woensdrecht Air Base",
    "city": "Woensdrecht",
    "country": "Netherlands",
    "IATA": "WOE",
    "lat": 51.4491,
    "lon": 4.34203,
    "passengers": 0
  },
  {
    "name": "Cork Aéroport",
    "city": "Cork",
    "country": "Ireland",
    "IATA": "ORK",
    "lat": 51.84130096435547,
    "lon": -8.491109848022461,
    "passengers": 0
  },
  {
    "name": "Galway Aéroport",
    "city": "Galway",
    "country": "Ireland",
    "IATA": "GWY",
    "lat": 53.300201416015625,
    "lon": -8.941590309143066,
    "passengers": 0
  },
  {
    "name": "Dublin Aéroport",
    "city": "Dublin",
    "country": "Ireland",
    "IATA": "DUB",
    "lat": 53.421299,
    "lon": -6.27007,
    "passengers": 27908347
  },
  {
    "name": "Ireland West Knock Aéroport",
    "city": "Connaught",
    "country": "Ireland",
    "IATA": "NOC",
    "lat": 53.910301208496094,
    "lon": -8.818490028381348,
    "passengers": 0
  },
  {
    "name": "Kerry Aéroport",
    "city": "Kerry",
    "country": "Ireland",
    "IATA": "KIR",
    "lat": 52.18090057373047,
    "lon": -9.52377986907959,
    "passengers": 0
  },
  {
    "name": "Shannon Aéroport",
    "city": "Shannon",
    "country": "Ireland",
    "IATA": "SNN",
    "lat": 52.701999664307,
    "lon": -8.9248199462891,
    "passengers": 0
  },
  {
    "name": "Sligo Aéroport",
    "city": "Sligo",
    "country": "Ireland",
    "IATA": "SXL",
    "lat": 54.280200958252,
    "lon": -8.5992097854614,
    "passengers": 0
  },
  {
    "name": "Waterford Aéroport",
    "city": "Waterford",
    "country": "Ireland",
    "IATA": "WAT",
    "lat": 52.187198638916016,
    "lon": -7.0869598388671875,
    "passengers": 0
  },
  {
    "name": "Aarhus Aéroport",
    "city": "Aarhus",
    "country": "Denmark",
    "IATA": "AAR",
    "lat": 56.2999992371,
    "lon": 10.619000434899998,
    "passengers": 0
  },
  {
    "name": "Billund Aéroport",
    "city": "Billund",
    "country": "Denmark",
    "IATA": "BLL",
    "lat": 55.7402992249,
    "lon": 9.15178012848,
    "passengers": 0
  },
  {
    "name": "Copenhagen Kastrup Aéroport",
    "city": "Copenhagen",
    "country": "Denmark",
    "IATA": "CPH",
    "lat": 55.617900848389,
    "lon": 12.656000137329,
    "passengers": 0
  },
  {
    "name": "Esbjerg Aéroport",
    "city": "Esbjerg",
    "country": "Denmark",
    "IATA": "EBJ",
    "lat": 55.525902,
    "lon": 8.5534,
    "passengers": 0
  },
  {
    "name": "Karup Aéroport",
    "city": "Karup",
    "country": "Denmark",
    "IATA": "KRP",
    "lat": 56.29750061035156,
    "lon": 9.124629974365234,
    "passengers": 0
  },
  {
    "name": "Læsø Aéroport",
    "city": "Laeso",
    "country": "Denmark",
    "IATA": "BYR",
    "lat": 57.277198791503906,
    "lon": 11.000100135803223,
    "passengers": 0
  },
  {
    "name": "Lolland Falster Maribo Aéroport",
    "city": "Maribo",
    "country": "Denmark",
    "IATA": "MRW",
    "lat": 54.699299,
    "lon": 11.4401,
    "passengers": 0
  },
  {
    "name": "Odense Aéroport",
    "city": "Odense",
    "country": "Denmark",
    "IATA": "ODE",
    "lat": 55.47669982910156,
    "lon": 10.330900192260742,
    "passengers": 0
  },
  {
    "name": "Copenhagen Roskilde Aéroport",
    "city": "Copenhagen",
    "country": "Denmark",
    "IATA": "RKE",
    "lat": 55.585601806640625,
    "lon": 12.131400108337402,
    "passengers": 0
  },
  {
    "name": "Bornholm Aéroport",
    "city": "Ronne",
    "country": "Denmark",
    "IATA": "RNN",
    "lat": 55.06330108642578,
    "lon": 14.759599685668945,
    "passengers": 0
  },
  {
    "name": "Sønderborg Aéroport",
    "city": "Soenderborg",
    "country": "Denmark",
    "IATA": "SGD",
    "lat": 54.96440124511719,
    "lon": 9.791729927062988,
    "passengers": 0
  },
  {
    "name": "Skrydstrup Air Base",
    "city": "Skrydstrup",
    "country": "Denmark",
    "IATA": "SKS",
    "lat": 55.221048,
    "lon": 9.26702,
    "passengers": 0
  },
  {
    "name": "Skive Aéroport",
    "city": "Skive",
    "country": "Denmark",
    "IATA": "SQW",
    "lat": 56.550201416015625,
    "lon": 9.172980308532715,
    "passengers": 0
  },
  {
    "name": "Thisted Aéroport",
    "city": "Thisted",
    "country": "Denmark",
    "IATA": "TED",
    "lat": 57.06880187988281,
    "lon": 8.705220222473145,
    "passengers": 0
  },
  {
    "name": "Vagar Aéroport",
    "city": "Vagar",
    "country": "Faroe Islands",
    "IATA": "FAE",
    "lat": 62.0635986328125,
    "lon": -7.277219772338867,
    "passengers": 0
  },
  {
    "name": "Stauning Aéroport",
    "city": "Stauning",
    "country": "Denmark",
    "IATA": "STA",
    "lat": 55.9901008605957,
    "lon": 8.353910446166992,
    "passengers": 0
  },
  {
    "name": "Aalborg Aéroport",
    "city": "Aalborg",
    "country": "Denmark",
    "IATA": "AAL",
    "lat": 57.0927589138,
    "lon": 9.84924316406,
    "passengers": 0
  },
  {
    "name": "Luxembourg-Findel International Aéroport",
    "city": "Luxemburg",
    "country": "Luxembourg",
    "IATA": "LUX",
    "lat": 49.6233333,
    "lon": 6.2044444,
    "passengers": 0
  },
  {
    "name": "Ålesund Aéroport",
    "city": "Alesund",
    "country": "Norway",
    "IATA": "AES",
    "lat": 62.5625,
    "lon": 6.119699954986572,
    "passengers": 0
  },
  {
    "name": "Andøya Aéroport",
    "city": "Andoya",
    "country": "Norway",
    "IATA": "ANX",
    "lat": 69.292503356934,
    "lon": 16.144199371338,
    "passengers": 0
  },
  {
    "name": "Alta Aéroport",
    "city": "Alta",
    "country": "Norway",
    "IATA": "ALF",
    "lat": 69.976097106934,
    "lon": 23.371700286865,
    "passengers": 0
  },
  {
    "name": "Brønnøysund Aéroport",
    "city": "Bronnoysund",
    "country": "Norway",
    "IATA": "BNN",
    "lat": 65.461097717285,
    "lon": 12.217499732971,
    "passengers": 0
  },
  {
    "name": "Bodø Aéroport",
    "city": "Bodo",
    "country": "Norway",
    "IATA": "BOO",
    "lat": 67.26920318603516,
    "lon": 14.365300178527832,
    "passengers": 0
  },
  {
    "name": "Bergen Aéroport Flesland",
    "city": "Bergen",
    "country": "Norway",
    "IATA": "BGO",
    "lat": 60.29339981,
    "lon": 5.218140125,
    "passengers": 0
  },
  {
    "name": "Båtsfjord Aéroport",
    "city": "Batsfjord",
    "country": "Norway",
    "IATA": "BJF",
    "lat": 70.60050201416,
    "lon": 29.691400527954,
    "passengers": 0
  },
  {
    "name": "Kristiansand Aéroport",
    "city": "Kristiansand",
    "country": "Norway",
    "IATA": "KRS",
    "lat": 58.204201,
    "lon": 8.08537,
    "passengers": 0
  },
  {
    "name": "Geilo Aéroport Dagali",
    "city": "Geilo",
    "country": "Norway",
    "IATA": "DLD",
    "lat": 60.417301177978516,
    "lon": 8.518349647521973,
    "passengers": 0
  },
  {
    "name": "Bardufoss Aéroport",
    "city": "Bardufoss",
    "country": "Norway",
    "IATA": "BDU",
    "lat": 69.055801391602,
    "lon": 18.540399551392,
    "passengers": 0
  },
  {
    "name": "Harstad/Narvik Aéroport, Evenes",
    "city": "Harstad/Narvik",
    "country": "Norway",
    "IATA": "EVE",
    "lat": 68.491302490234,
    "lon": 16.678100585938,
    "passengers": 0
  },
  {
    "name": "Leirin Aéroport",
    "city": "Fagernes",
    "country": "Norway",
    "IATA": "VDB",
    "lat": 61.015598297119,
    "lon": 9.2880601882935,
    "passengers": 0
  },
  {
    "name": "Florø Aéroport",
    "city": "Floro",
    "country": "Norway",
    "IATA": "FRO",
    "lat": 61.583599090576,
    "lon": 5.0247201919556,
    "passengers": 0
  },
  {
    "name": "Oslo Gardermoen Aéroport",
    "city": "Oslo",
    "country": "Norway",
    "IATA": "OSL",
    "lat": 60.193901062012,
    "lon": 11.100399971008,
    "passengers": 0
  },
  {
    "name": "Haugesund Aéroport",
    "city": "Haugesund",
    "country": "Norway",
    "IATA": "HAU",
    "lat": 59.34529876709,
    "lon": 5.2083601951599,
    "passengers": 0
  },